{
  "version": "1.0",
  "generated_at": "2026-02-01T18:22:37.907465Z",
  "source": "nws",
  "coverage_states": "WA,OR,ID,MT,WY",
  "station_count": 7391,
  "stations": [
    {
      "id": "001ID",
      "name": "E2T13",
      "lat": 45.02195,
      "lon": -113.68215,
      "elevation_m": 1458.7728,
      "state": null,
      "abbr": "001I",
      "station_type": "nws",
      "display_weight": 1.0
    },
    {
      "id": "001NW",
      "name": "Grizzly Gulch",
      "lat": 46.57807,
      "lon": -112.05122,
      "elevation_m": 1281.9888,
      "state": null,
      "abbr": "001N",
      "station_type": "nws",
      "display_weight": 1.0
    },
    {
      "id": "002ID",
      "name": "E2T15",
      "lat": 45.07377,
      "lon": -113.63931,
      "elevation_m": 1634.3376,
      "state": null,
      "abbr": "002I",
      "station_type": "nws",
      "display_weight": 1.0
    },
    {
      "id": "002NW",
      "name": "Hwy 12",
      "lat": 46.57506,
      "lon": -112.16532,
      "elevation_m": 1287.1704,
      "state": null,
      "abbr": "002N",
      "station_type": "nws",
      "display_weight": 1.0
    },
    {
      "id": "003AV",
      "name": "Chattaroy",
      "lat": 47.8747,
      "lon": -117.42494,
      "elevation_m": 632.7648,
      "state": null,
      "abbr": "003A",
      "station_type": "nws",
      "display_weight": 1.0
    },
    {
      "id": "003ID",
      "name": "W2T26",
      "lat": 44.30781,
      "lon": -115.9854,
      "elevation_m": 1488.6432,
      "state": null,
      "abbr": "003I",
      "station_type": "nws",
      "display_weight": 1.0
    },
    {
      "id": "003NW",
      "name": "Birdseye Rd",
      "lat": 46.68129,
      "lon": -112.16736,
      "elevation_m": 1357.5792,
      "state": null,
      "abbr": "003N",
      "station_type": "nws",
      "display_weight": 1.0
    },
    {
      "id": "004AV",
      "name": "Loon Lake",
      "lat": 48.06148,
      "lon": -117.62181,
      "elevation_m": 741.2736,
      "state": null,
      "abbr": "004A",
      "station_type": "nws",
      "display_weight": 1.0
    },
    {
      "id": "004ID",
      "name": "W2T31",
      "lat": 44.42516,
      "lon": -115.99145,
      "elevation_m": 1452.372,
      "state": null,
      "abbr": "004I",
      "station_type": "nws",
      "display_weight": 1.0
    },
    {
      "id": "004NW",
      "name": "McClellan Creek Rd",
      "lat": 46.49828,
      "lon": -111.85646,
      "elevation_m": 1577.6448,
      "state": null,
      "abbr": "004N",
      "station_type": "nws",
      "display_weight": 1.0
    },
    {
      "id": "005AV",
      "name": "Riverside High",
      "lat": 47.95751,
      "lon": -117.35884,
      "elevation_m": 602.2848,
      "state": null,
      "abbr": "005A",
      "station_type": "nws",
      "display_weight": 1.0
    },
    {
      "id": "005ID",
      "name": "W3T2",
      "lat": 44.47213,
      "lon": -116.05862,
      "elevation_m": 1474.6224,
      "state": null,
      "abbr": "005I",
      "station_type": "nws",
      "display_weight": 1.0
    },
    {
      "id": "005NW",
      "name": "South Hills",
      "lat": 46.56093,
      "lon": -112.01502,
      "elevation_m": 1542.5928,
      "state": null,
      "abbr": "005N",
      "station_type": "nws",
      "display_weight": 1.0
    },
    {
      "id": "006AV",
      "name": "Pocahontas Bay",
      "lat": 48.03448,
      "lon": -117.37135,
      "elevation_m": 637.032,
      "state": null,
      "abbr": "006A",
      "station_type": "nws",
      "display_weight": 1.0
    },
    {
      "id": "006ID",
      "name": "W3T6",
      "lat": 44.70218,
      "lon": -116.08283,
      "elevation_m": 1480.1088,
      "state": null,
      "abbr": "006I",
      "station_type": "nws",
      "display_weight": 1.0
    },
    {
      "id": "006NW",
      "name": "I-15",
      "lat": 46.47838,
      "lon": -111.97644,
      "elevation_m": 1282.9032,
      "state": null,
      "abbr": "006N",
      "station_type": "nws",
      "display_weight": 1.0
    },
    {
      "id": "007AV",
      "name": "Green Bluff",
      "lat": 47.82358,
      "lon": -117.26142,
      "elevation_m": 721.1568,
      "state": null,
      "abbr": "007A",
      "station_type": "nws",
      "display_weight": 1.0
    },
    {
      "id": "007ID",
      "name": "W2T17",
      "lat": 44.07152,
      "lon": -115.94224,
      "elevation_m": 952.5,
      "state": null,
      "abbr": "007I",
      "station_type": "nws",
      "display_weight": 1.0
    },
    {
      "id": "007NW",
      "name": "Sawmill Rd",
      "lat": 46.50819,
      "lon": -111.90153,
      "elevation_m": 1515.1608,
      "state": null,
      "abbr": "007N",
      "station_type": "nws",
      "display_weight": 1.0
    },
    {
      "id": "008AV",
      "name": "S Molter Rd",
      "lat": 47.62133,
      "lon": -117.10913,
      "elevation_m": 669.3408,
      "state": null,
      "abbr": "008A",
      "station_type": "nws",
      "display_weight": 1.0
    },
    {
      "id": "008ID",
      "name": "CP3T6",
      "lat": 43.63644,
      "lon": -115.98799,
      "elevation_m": 1003.0968,
      "state": null,
      "abbr": "008I",
      "station_type": "nws",
      "display_weight": 1.0
    },
    {
      "id": "008NW",
      "name": "Mt Hwy 87",
      "lat": 44.8172,
      "lon": -111.48105,
      "elevation_m": 1891.284,
      "state": null,
      "abbr": "008N",
      "station_type": "nws",
      "display_weight": 1.0
    },
    {
      "id": "009AV",
      "name": "Liberty Lake",
      "lat": 47.651,
      "lon": -117.09497,
      "elevation_m": 648.6144,
      "state": null,
      "abbr": "009A",
      "station_type": "nws",
      "display_weight": 1.0
    },
    {
      "id": "009ID",
      "name": "W3T7",
      "lat": 44.71661,
      "lon": -116.11247,
      "elevation_m": 1479.1944,
      "state": null,
      "abbr": "009I",
      "station_type": "nws",
      "display_weight": 1.0
    },
    {
      "id": "009NW",
      "name": "Jackson Creek Rd.",
      "lat": 45.67069,
      "lon": -110.83718,
      "elevation_m": 1664.5128,
      "state": null,
      "abbr": "009N",
      "station_type": "nws",
      "display_weight": 1.0
    },
    {
      "id": "010AV",
      "name": "Deer Park",
      "lat": 47.96024,
      "lon": -117.49249,
      "elevation_m": 657.4536,
      "state": null,
      "abbr": "010A",
      "station_type": "nws",
      "display_weight": 1.0
    },
    {
      "id": "010ID",
      "name": "W3T5",
      "lat": 44.64004,
      "lon": -116.11755,
      "elevation_m": 1474.0128,
      "state": null,
      "abbr": "010I",
      "station_type": "nws",
      "display_weight": 1.0
    },
    {
      "id": "010NW",
      "name": "Roosevelt Dr",
      "lat": 45.85747,
      "lon": -112.49302,
      "elevation_m": 1996.1352,
      "state": null,
      "abbr": "010N",
      "station_type": "nws",
      "display_weight": 1.0
    },
    {
      "id": "011AV",
      "name": "Evan's Cutoff Road",
      "lat": 48.72561,
      "lon": -117.96641,
      "elevation_m": 673.3032,
      "state": null,
      "abbr": "011A",
      "station_type": "nws",
      "display_weight": 1.0
    },
    {
      "id": "011ID",
      "name": "W3T3",
      "lat": 44.53776,
      "lon": -116.12015,
      "elevation_m": 1499.0064,
      "state": null,
      "abbr": "011I",
      "station_type": "nws",
      "display_weight": 1.0
    },
    {
      "id": "011NW",
      "name": "Cornucopia Rd",
      "lat": 45.27459,
      "lon": -111.95791,
      "elevation_m": 2097.9384,
      "state": null,
      "abbr": "011N",
      "station_type": "nws",
      "display_weight": 1.0
    },
    {
      "id": "012AV",
      "name": "Barstow",
      "lat": 48.78481,
      "lon": -118.10225,
      "elevation_m": 607.7712,
      "state": null,
      "abbr": "012A",
      "station_type": "nws",
      "display_weight": 1.0
    },
    {
      "id": "012ID",
      "name": "W3T4",
      "lat": 44.57513,
      "lon": -116.05534,
      "elevation_m": 1483.1568,
      "state": null,
      "abbr": "012I",
      "station_type": "nws",
      "display_weight": 1.0
    },
    {
      "id": "012NW",
      "name": "21 Bull Run Rd",
      "lat": 45.66013,
      "lon": -110.76155,
      "elevation_m": 1649.2728,
      "state": null,
      "abbr": "012N",
      "station_type": "nws",
      "display_weight": 1.0
    },
    {
      "id": "013AV",
      "name": "SW Springdale",
      "lat": 48.02647,
      "lon": -117.80896,
      "elevation_m": 765.6576,
      "state": null,
      "abbr": "013A",
      "station_type": "nws",
      "display_weight": 1.0
    },
    {
      "id": "013ID",
      "name": "W2T39",
      "lat": 44.85669,
      "lon": -117.0657,
      "elevation_m": 764.1336,
      "state": null,
      "abbr": "013I",
      "station_type": "nws",
      "display_weight": 1.0
    },
    {
      "id": "013NW",
      "name": "HWY 308 Red Lodge",
      "lat": 45.18248,
      "lon": -109.23655,
      "elevation_m": 1788.2616,
      "state": null,
      "abbr": "013N",
      "station_type": "nws",
      "display_weight": 1.0
    },
    {
      "id": "014AV",
      "name": "Chewelah",
      "lat": 48.30123,
      "lon": -117.70439,
      "elevation_m": 578.5104,
      "state": null,
      "abbr": "014A",
      "station_type": "nws",
      "display_weight": 1.0
    },
    {
      "id": "014ID",
      "name": "W2T35",
      "lat": 44.5915,
      "lon": -116.67097,
      "elevation_m": 869.5944,
      "state": null,
      "abbr": "014I",
      "station_type": "nws",
      "display_weight": 1.0
    },
    {
      "id": "014NW",
      "name": "Coburn Rd",
      "lat": 45.7819,
      "lon": -108.46067,
      "elevation_m": 1046.0736,
      "state": null,
      "abbr": "014N",
      "station_type": "nws",
      "display_weight": 1.0
    },
    {
      "id": "015AV",
      "name": "Deer Lake",
      "lat": 48.1075,
      "lon": -117.60608,
      "elevation_m": 760.476,
      "state": null,
      "abbr": "015A",
      "station_type": "nws",
      "display_weight": 1.0
    },
    {
      "id": "015ID",
      "name": "W2T33",
      "lat": 44.59496,
      "lon": -116.48133,
      "elevation_m": 865.9368,
      "state": null,
      "abbr": "015I",
      "station_type": "nws",
      "display_weight": 1.0
    },
    {
      "id": "015NW",
      "name": "HWY 89 Monarch",
      "lat": 47.16661,
      "lon": -110.84706,
      "elevation_m": 1492.9104,
      "state": null,
      "abbr": "015N",
      "station_type": "nws",
      "display_weight": 1.0
    },
    {
      "id": "016AV",
      "name": "Sunwest Ave",
      "lat": 47.6322,
      "lon": -117.69031,
      "elevation_m": 744.6264,
      "state": null,
      "abbr": "016A",
      "station_type": "nws",
      "display_weight": 1.0
    },
    {
      "id": "016ID",
      "name": "W2T32",
      "lat": 44.54099,
      "lon": -116.42025,
      "elevation_m": 947.3184,
      "state": null,
      "abbr": "016I",
      "station_type": "nws",
      "display_weight": 1.0
    },
    {
      "id": "016NW",
      "name": "Hauser Dam Dr - Helena Valley",
      "lat": 46.72678,
      "lon": -111.90195,
      "elevation_m": 1225.9056,
      "state": null,
      "abbr": "016N",
      "station_type": "nws",
      "display_weight": 1.0
    },
    {
      "id": "017AV",
      "name": "McClellan Conservation Area",
      "lat": 47.8697,
      "lon": -117.683,
      "elevation_m": 538.2768,
      "state": null,
      "abbr": "017A",
      "station_type": "nws",
      "display_weight": 1.0
    },
    {
      "id": "017ID",
      "name": "W2T49",
      "lat": 44.52049,
      "lon": -118.21728,
      "elevation_m": 1187.196,
      "state": null,
      "abbr": "017I",
      "station_type": "nws",
      "display_weight": 1.0
    },
    {
      "id": "017NW",
      "name": "Corbin Rd - Clancy 2 South",
      "lat": 46.38568,
      "lon": -112.04658,
      "elevation_m": 1422.5016,
      "state": null,
      "abbr": "017N",
      "station_type": "nws",
      "display_weight": 1.0
    },
    {
      "id": "018AV",
      "name": "Newport",
      "lat": 48.2058,
      "lon": -117.01156,
      "elevation_m": 740.0544,
      "state": null,
      "abbr": "018A",
      "station_type": "nws",
      "display_weight": 1.0
    },
    {
      "id": "018ID",
      "name": "W2T51",
      "lat": 43.99341,
      "lon": -117.25527,
      "elevation_m": 726.6432,
      "state": null,
      "abbr": "018I",
      "station_type": "nws",
      "display_weight": 1.0
    },
    {
      "id": "018NW",
      "name": "Dentons Point Rd - George Town Lake",
      "lat": 46.17198,
      "lon": -113.28896,
      "elevation_m": 1949.5008,
      "state": null,
      "abbr": "018N",
      "station_type": "nws",
      "display_weight": 1.0
    },
    {
      "id": "019AV",
      "name": "Priest River",
      "lat": 48.20221,
      "lon": -116.87037,
      "elevation_m": 737.0064,
      "state": null,
      "abbr": "019A",
      "station_type": "nws",
      "display_weight": 1.0
    },
    {
      "id": "019ID",
      "name": "W2T4",
      "lat": 43.87074,
      "lon": -116.93396,
      "elevation_m": 730.9104,
      "state": null,
      "abbr": "019I",
      "station_type": "nws",
      "display_weight": 1.0
    },
    {
      "id": "019NW",
      "name": "Prospect Creek Rd - Thompson Falls South",
      "lat": 47.57694,
      "lon": -115.38801,
      "elevation_m": 805.5864,
      "state": null,
      "abbr": "019N",
      "station_type": "nws",
      "display_weight": 1.0
    },
    {
      "id": "020AV",
      "name": "Sagle",
      "lat": 48.2164,
      "lon": -116.57847,
      "elevation_m": 672.9984,
      "state": null,
      "abbr": "020A",
      "station_type": "nws",
      "display_weight": 1.0
    },
    {
      "id": "020ID",
      "name": "W2T16",
      "lat": 43.98475,
      "lon": -116.31375,
      "elevation_m": 790.3464,
      "state": null,
      "abbr": "020I",
      "station_type": "nws",
      "display_weight": 1.0
    },
    {
      "id": "020NW",
      "name": "Pattee Canyon Rd - Pattee Canyon",
      "lat": 46.8483,
      "lon": -113.92799,
      "elevation_m": 1693.4688,
      "state": null,
      "abbr": "020N",
      "station_type": "nws",
      "display_weight": 1.0
    },
    {
      "id": "021AV",
      "name": "Dufort",
      "lat": 48.16199,
      "lon": -116.5514,
      "elevation_m": 712.9272,
      "state": null,
      "abbr": "021A",
      "station_type": "nws",
      "display_weight": 1.0
    },
    {
      "id": "021ID",
      "name": "W2T12",
      "lat": 43.95983,
      "lon": -116.42571,
      "elevation_m": 1004.6208,
      "state": null,
      "abbr": "021I",
      "station_type": "nws",
      "display_weight": 1.0
    },
    {
      "id": "022AV",
      "name": "Kettle Falls",
      "lat": 48.61562,
      "lon": -118.11572,
      "elevation_m": 406.908,
      "state": null,
      "abbr": "022A",
      "station_type": "nws",
      "display_weight": 1.0
    },
    {
      "id": "022ID",
      "name": "CN2T3",
      "lat": 43.20291,
      "lon": -116.58048,
      "elevation_m": 920.8008,
      "state": null,
      "abbr": "022I",
      "station_type": "nws",
      "display_weight": 1.0
    },
    {
      "id": "023AV",
      "name": "Orin-Rice Road",
      "lat": 48.43949,
      "lon": -118.06871,
      "elevation_m": 995.7816,
      "state": null,
      "abbr": "023A",
      "station_type": "nws",
      "display_weight": 1.0
    },
    {
      "id": "023ID",
      "name": "CN2T4",
      "lat": 43.26982,
      "lon": -116.56984,
      "elevation_m": 778.1544,
      "state": null,
      "abbr": "023I",
      "station_type": "nws",
      "display_weight": 1.0
    },
    {
      "id": "024AV",
      "name": "Kingston",
      "lat": 47.54414,
      "lon": -116.26501,
      "elevation_m": 722.6808,
      "state": null,
      "abbr": "024A",
      "station_type": "nws",
      "display_weight": 1.0
    },
    {
      "id": "024ID",
      "name": "CN2T5",
      "lat": 43.33998,
      "lon": -116.66807,
      "elevation_m": 747.9792,
      "state": null,
      "abbr": "024I",
      "station_type": "nws",
      "display_weight": 1.0
    },
    {
      "id": "025AV",
      "name": "Big Creek",
      "lat": 47.50964,
      "lon": -116.07036,
      "elevation_m": 772.9728,
      "state": null,
      "abbr": "025A",
      "station_type": "nws",
      "display_weight": 1.0
    },
    {
      "id": "025ID",
      "name": "CP2T10",
      "lat": 43.42506,
      "lon": -116.2344,
      "elevation_m": 886.968,
      "state": null,
      "abbr": "025I",
      "station_type": "nws",
      "display_weight": 1.0
    },
    {
      "id": "026AV",
      "name": "Silverton",
      "lat": 47.50059,
      "lon": -115.96694,
      "elevation_m": 939.3936,
      "state": null,
      "abbr": "026A",
      "station_type": "nws",
      "display_weight": 1.0
    },
    {
      "id": "026BH",
      "name": "Curt Gowdy",
      "lat": 41.15038,
      "lon": -105.22537,
      "elevation_m": 2261.616,
      "state": null,
      "abbr": "026B",
      "station_type": "nws",
      "display_weight": 1.0
    },
    {
      "id": "026ID",
      "name": "CP2T11",
      "lat": 43.48685,
      "lon": -116.3044,
      "elevation_m": 869.8992,
      "state": null,
      "abbr": "026I",
      "station_type": "nws",
      "display_weight": 1.0
    },
    {
      "id": "027BH",
      "name": "Harriman Road",
      "lat": 41.02779,
      "lon": -105.23046,
      "elevation_m": 2288.7432,
      "state": null,
      "abbr": "027B",
      "station_type": "nws",
      "display_weight": 1.0
    },
    {
      "id": "027ID",
      "name": "CP2T9",
      "lat": 43.42995,
      "lon": -116.43655,
      "elevation_m": 907.3896,
      "state": null,
      "abbr": "027I",
      "station_type": "nws",
      "display_weight": 1.0
    },
    {
      "id": "028ID",
      "name": "CP2T8",
      "lat": 43.42134,
      "lon": -116.38893,
      "elevation_m": 876.6048,
      "state": null,
      "abbr": "028I",
      "station_type": "nws",
      "display_weight": 1.0
    },
    {
      "id": "029AV",
      "name": "Berlin Gulch",
      "lat": 47.78769,
      "lon": -115.95266,
      "elevation_m": 849.1728,
      "state": null,
      "abbr": "029A",
      "station_type": "nws",
      "display_weight": 1.0
    },
    {
      "id": "029ID",
      "name": "CP2T4",
      "lat": 43.07657,
      "lon": -115.70218,
      "elevation_m": 939.3936,
      "state": null,
      "abbr": "029I",
      "station_type": "nws",
      "display_weight": 1.0
    },
    {
      "id": "030AV",
      "name": "Dorset Rd",
      "lat": 47.6127,
      "lon": -117.46444,
      "elevation_m": 705.612,
      "state": null,
      "abbr": "030A",
      "station_type": "nws",
      "display_weight": 1.0
    },
    {
      "id": "030ID",
      "name": "CP2T3",
      "lat": 43.12301,
      "lon": -115.74684,
      "elevation_m": 957.3768,
      "state": null,
      "abbr": "030I",
      "station_type": "nws",
      "display_weight": 1.0
    },
    {
      "id": "031AV",
      "name": "Deep Creek",
      "lat": 47.64492,
      "lon": -117.71186,
      "elevation_m": 710.7936,
      "state": null,
      "abbr": "031A",
      "station_type": "nws",
      "display_weight": 1.0
    },
    {
      "id": "031ID",
      "name": "CP2T5",
      "lat": 43.21151,
      "lon": -115.68739,
      "elevation_m": 1042.7208,
      "state": null,
      "abbr": "031I",
      "station_type": "nws",
      "display_weight": 1.0
    },
    {
      "id": "032AV",
      "name": "Five Mile Prairie",
      "lat": 47.75867,
      "lon": -117.49716,
      "elevation_m": 600.7608,
      "state": null,
      "abbr": "032A",
      "station_type": "nws",
      "display_weight": 1.0
    },
    {
      "id": "032ID",
      "name": "CP2T2",
      "lat": 43.30163,
      "lon": -115.83671,
      "elevation_m": 1022.604,
      "state": null,
      "abbr": "032I",
      "station_type": "nws",
      "display_weight": 1.0
    },
    {
      "id": "033AV",
      "name": "Smyrna",
      "lat": 46.85381,
      "lon": -119.6014,
      "elevation_m": 181.9656,
      "state": null,
      "abbr": "033A",
      "station_type": "nws",
      "display_weight": 1.0
    },
    {
      "id": "033ID",
      "name": "CP2T6",
      "lat": 43.53766,
      "lon": -116.11482,
      "elevation_m": 945.4896,
      "state": null,
      "abbr": "033I",
      "station_type": "nws",
      "display_weight": 1.0
    },
    {
      "id": "034AV",
      "name": "Stratford",
      "lat": 47.42354,
      "lon": -119.27549,
      "elevation_m": 385.8768,
      "state": null,
      "abbr": "034A",
      "station_type": "nws",
      "display_weight": 1.0
    },
    {
      "id": "034ID",
      "name": "CP3T5",
      "lat": 43.53163,
      "lon": -116.06685,
      "elevation_m": 963.4728,
      "state": null,
      "abbr": "034I",
      "station_type": "nws",
      "display_weight": 1.0
    },
    {
      "id": "035AV",
      "name": "Lind",
      "lat": 46.94074,
      "lon": -118.57048,
      "elevation_m": 551.9928,
      "state": null,
      "abbr": "035A",
      "station_type": "nws",
      "display_weight": 1.0
    },
    {
      "id": "035ID",
      "name": "CP3T4",
      "lat": 43.61843,
      "lon": -116.13514,
      "elevation_m": 1019.8608,
      "state": null,
      "abbr": "035I",
      "station_type": "nws",
      "display_weight": 1.0
    },
    {
      "id": "036AV",
      "name": "Mead",
      "lat": 47.77273,
      "lon": -117.35659,
      "elevation_m": 579.12,
      "state": null,
      "abbr": "036A",
      "station_type": "nws",
      "display_weight": 1.0
    },
    {
      "id": "036ID",
      "name": "CP2T12",
      "lat": 43.52779,
      "lon": -116.23375,
      "elevation_m": 876.6048,
      "state": null,
      "abbr": "036I",
      "station_type": "nws",
      "display_weight": 1.0
    },
    {
      "id": "037AV",
      "name": "Chester",
      "lat": 47.61332,
      "lon": -117.28212,
      "elevation_m": 676.9608,
      "state": null,
      "abbr": "037A",
      "station_type": "nws",
      "display_weight": 1.0
    },
    {
      "id": "037ID",
      "name": "CP2T15",
      "lat": 43.78077,
      "lon": -116.46823,
      "elevation_m": 815.9496,
      "state": null,
      "abbr": "037I",
      "station_type": "nws",
      "display_weight": 1.0
    },
    {
      "id": "038AV",
      "name": "Timberview Lane",
      "lat": 47.56528,
      "lon": -117.4375,
      "elevation_m": 717.4992,
      "state": null,
      "abbr": "038A",
      "station_type": "nws",
      "display_weight": 1.0
    },
    {
      "id": "038ID",
      "name": "CN2T8",
      "lat": 43.72619,
      "lon": -116.53278,
      "elevation_m": 783.0312,
      "state": null,
      "abbr": "038I",
      "station_type": "nws",
      "display_weight": 1.0
    },
    {
      "id": "039ID",
      "name": "CP3T1",
      "lat": 43.74701,
      "lon": -116.3546,
      "elevation_m": 826.6176,
      "state": null,
      "abbr": "039I",
      "station_type": "nws",
      "display_weight": 1.0
    },
    {
      "id": "040AV",
      "name": "Wilbur",
      "lat": 47.76228,
      "lon": -118.69979,
      "elevation_m": 674.5224,
      "state": null,
      "abbr": "040A",
      "station_type": "nws",
      "display_weight": 1.0
    },
    {
      "id": "040ID",
      "name": "W2T3",
      "lat": 43.86087,
      "lon": -116.37512,
      "elevation_m": 976.884,
      "state": null,
      "abbr": "040I",
      "station_type": "nws",
      "display_weight": 1.0
    },
    {
      "id": "041AV",
      "name": "Devil's Gap",
      "lat": 47.82539,
      "lon": -117.87925,
      "elevation_m": 530.352,
      "state": null,
      "abbr": "041A",
      "station_type": "nws",
      "display_weight": 1.0
    },
    {
      "id": "041ID",
      "name": "W2T6",
      "lat": 43.86848,
      "lon": -116.23123,
      "elevation_m": 1070.4576,
      "state": null,
      "abbr": "041I",
      "station_type": "nws",
      "display_weight": 1.0
    },
    {
      "id": "042AV",
      "name": "Ford",
      "lat": 47.90521,
      "lon": -117.81962,
      "elevation_m": 539.8008,
      "state": null,
      "abbr": "042A",
      "station_type": "nws",
      "display_weight": 1.0
    },
    {
      "id": "042ID",
      "name": "E2T28",
      "lat": 45.54789,
      "lon": -113.93146,
      "elevation_m": 1374.0384,
      "state": null,
      "abbr": "042I",
      "station_type": "nws",
      "display_weight": 1.0
    },
    {
      "id": "043AV",
      "name": "Waukon",
      "lat": 47.50832,
      "lon": -117.8189,
      "elevation_m": 728.7768,
      "state": null,
      "abbr": "043A",
      "station_type": "nws",
      "display_weight": 1.0
    },
    {
      "id": "043ID",
      "name": "W2T52",
      "lat": 44.11409,
      "lon": -115.39244,
      "elevation_m": 1384.7064,
      "state": null,
      "abbr": "043I",
      "station_type": "nws",
      "display_weight": 1.0
    },
    {
      "id": "044AV",
      "name": "Blanchard",
      "lat": 48.01781,
      "lon": -116.99051,
      "elevation_m": 696.7728,
      "state": null,
      "abbr": "044A",
      "station_type": "nws",
      "display_weight": 1.0
    },
    {
      "id": "044ID",
      "name": "CP3T10",
      "lat": 43.88108,
      "lon": -115.91073,
      "elevation_m": 1253.9472,
      "state": null,
      "abbr": "044I",
      "station_type": "nws",
      "display_weight": 1.0
    },
    {
      "id": "045AV",
      "name": "Spirit Lake",
      "lat": 47.97518,
      "lon": -116.87139,
      "elevation_m": 780.8976,
      "state": null,
      "abbr": "045A",
      "station_type": "nws",
      "display_weight": 1.0
    },
    {
      "id": "045ID",
      "name": "W2T47",
      "lat": 45.21363,
      "lon": -116.3135,
      "elevation_m": 919.5816,
      "state": null,
      "abbr": "045I",
      "station_type": "nws",
      "display_weight": 1.0
    },
    {
      "id": "046AV",
      "name": "Last Chance",
      "lat": 47.66027,
      "lon": -116.69107,
      "elevation_m": 802.8432,
      "state": null,
      "abbr": "046A",
      "station_type": "nws",
      "display_weight": 1.0
    },
    {
      "id": "046ID",
      "name": "W3T13",
      "lat": 44.9637,
      "lon": -115.49268,
      "elevation_m": 1456.0296,
      "state": null,
      "abbr": "046I",
      "station_type": "nws",
      "display_weight": 1.0
    },
    {
      "id": "047AV",
      "name": "Howelltown",
      "lat": 47.80658,
      "lon": -116.98908,
      "elevation_m": 838.8096,
      "state": null,
      "abbr": "047A",
      "station_type": "nws",
      "display_weight": 1.0
    },
    {
      "id": "047ID",
      "name": "CP2T1",
      "lat": 43.47834,
      "lon": -115.99592,
      "elevation_m": 1129.8936,
      "state": null,
      "abbr": "047I",
      "station_type": "nws",
      "display_weight": 1.0
    },
    {
      "id": "048AV",
      "name": "Oakesdale",
      "lat": 47.12803,
      "lon": -117.2542,
      "elevation_m": 753.4656,
      "state": null,
      "abbr": "048A",
      "station_type": "nws",
      "display_weight": 1.0
    },
    {
      "id": "048ID",
      "name": "W2T40",
      "lat": 44.8616,
      "lon": -116.07717,
      "elevation_m": 1546.5552,
      "state": null,
      "abbr": "048I",
      "station_type": "nws",
      "display_weight": 1.0
    },
    {
      "id": "049AV",
      "name": "Clarkston Heights",
      "lat": 46.40186,
      "lon": -117.08852,
      "elevation_m": 328.8792,
      "state": null,
      "abbr": "049A",
      "station_type": "nws",
      "display_weight": 1.0
    },
    {
      "id": "049ID",
      "name": "CN2T2",
      "lat": 42.98603,
      "lon": -117.07865,
      "elevation_m": 1336.548,
      "state": null,
      "abbr": "049I",
      "station_type": "nws",
      "display_weight": 1.0
    },
    {
      "id": "050AV",
      "name": "East Troy",
      "lat": 46.75428,
      "lon": -116.71842,
      "elevation_m": 848.868,
      "state": null,
      "abbr": "050A",
      "station_type": "nws",
      "display_weight": 1.0
    },
    {
      "id": "050ID",
      "name": "CN2T1",
      "lat": 42.96538,
      "lon": -117.08535,
      "elevation_m": 1330.7568,
      "state": null,
      "abbr": "050I",
      "station_type": "nws",
      "display_weight": 1.0
    },
    {
      "id": "051AV",
      "name": "SW Bovill",
      "lat": 46.84896,
      "lon": -116.42701,
      "elevation_m": 918.0576,
      "state": null,
      "abbr": "051A",
      "station_type": "nws",
      "display_weight": 1.0
    },
    {
      "id": "051ID",
      "name": "W2T24",
      "lat": 44.28281,
      "lon": -116.31864,
      "elevation_m": 1013.7648,
      "state": null,
      "abbr": "051I",
      "station_type": "nws",
      "display_weight": 1.0
    },
    {
      "id": "052AV",
      "name": "Elk River",
      "lat": 46.77404,
      "lon": -116.21969,
      "elevation_m": 857.0976,
      "state": null,
      "abbr": "052A",
      "station_type": "nws",
      "display_weight": 1.0
    },
    {
      "id": "052ID",
      "name": "E2T22",
      "lat": 45.17037,
      "lon": -113.80518,
      "elevation_m": 1321.9176,
      "state": null,
      "abbr": "052I",
      "station_type": "nws",
      "display_weight": 1.0
    },
    {
      "id": "053AV",
      "name": "Sturgeon",
      "lat": 47.85458,
      "lon": -116.86532,
      "elevation_m": 710.4888,
      "state": null,
      "abbr": "053A",
      "station_type": "nws",
      "display_weight": 1.0
    },
    {
      "id": "053ID",
      "name": "E2T19",
      "lat": 45.09873,
      "lon": -113.92378,
      "elevation_m": 1319.784,
      "state": null,
      "abbr": "053I",
      "station_type": "nws",
      "display_weight": 1.0
    },
    {
      "id": "054AV",
      "name": "East Greenacres",
      "lat": 47.7597,
      "lon": -116.98083,
      "elevation_m": 645.2616,
      "state": null,
      "abbr": "054A",
      "station_type": "nws",
      "display_weight": 1.0
    },
    {
      "id": "054ID",
      "name": "E3T9",
      "lat": 45.17843,
      "lon": -113.93179,
      "elevation_m": 1353.0072,
      "state": null,
      "abbr": "054I",
      "station_type": "nws",
      "display_weight": 1.0
    },
    {
      "id": "055AV",
      "name": "Sunset Hwy (Reardan)",
      "lat": 47.67232,
      "lon": -117.95936,
      "elevation_m": 776.0208,
      "state": null,
      "abbr": "055A",
      "station_type": "nws",
      "display_weight": 1.0
    },
    {
      "id": "055ID",
      "name": "E2T14",
      "lat": 45.04979,
      "lon": -113.91358,
      "elevation_m": 1253.3376,
      "state": null,
      "abbr": "055I",
      "station_type": "nws",
      "display_weight": 1.0
    },
    {
      "id": "056ID",
      "name": "E2T17",
      "lat": 45.08198,
      "lon": -113.88189,
      "elevation_m": 1421.5872,
      "state": null,
      "abbr": "056I",
      "station_type": "nws",
      "display_weight": 1.0
    },
    {
      "id": "057ID",
      "name": "E3T10",
      "lat": 45.32896,
      "lon": -113.88474,
      "elevation_m": 1233.2208,
      "state": null,
      "abbr": "057I",
      "station_type": "nws",
      "display_weight": 1.0
    },
    {
      "id": "058ID",
      "name": "E3T8",
      "lat": 42.84385,
      "lon": -112.4486,
      "elevation_m": 1471.2696,
      "state": null,
      "abbr": "058I",
      "station_type": "nws",
      "display_weight": 1.0
    },
    {
      "id": "059ID",
      "name": "E3T7",
      "lat": 42.86547,
      "lon": -112.51628,
      "elevation_m": 1762.0488,
      "state": null,
      "abbr": "059I",
      "station_type": "nws",
      "display_weight": 1.0
    },
    {
      "id": "060ID",
      "name": "E2T7",
      "lat": 42.87929,
      "lon": -112.49315,
      "elevation_m": 1479.1944,
      "state": null,
      "abbr": "060I",
      "station_type": "nws",
      "display_weight": 1.0
    },
    {
      "id": "061ID",
      "name": "E2T1",
      "lat": 42.72533,
      "lon": -112.23642,
      "elevation_m": 1412.1384,
      "state": null,
      "abbr": "061I",
      "station_type": "nws",
      "display_weight": 1.0
    },
    {
      "id": "062ID",
      "name": "CP2T16",
      "lat": 43.06102,
      "lon": -115.3876,
      "elevation_m": 1006.1448,
      "state": null,
      "abbr": "062I",
      "station_type": "nws",
      "display_weight": 1.0
    },
    {
      "id": "063ID",
      "name": "S2T3",
      "lat": 43.48142,
      "lon": -114.36884,
      "elevation_m": 1667.8656,
      "state": null,
      "abbr": "063I",
      "station_type": "nws",
      "display_weight": 1.0
    },
    {
      "id": "064ID",
      "name": "E3T3",
      "lat": 42.79582,
      "lon": -112.4207,
      "elevation_m": 1527.048,
      "state": null,
      "abbr": "064I",
      "station_type": "nws",
      "display_weight": 1.0
    },
    {
      "id": "065ID",
      "name": "S2T1",
      "lat": 42.34973,
      "lon": -114.30084,
      "elevation_m": 1338.9864,
      "state": null,
      "abbr": "065I",
      "station_type": "nws",
      "display_weight": 1.0
    },
    {
      "id": "066ID",
      "name": "E2T2",
      "lat": 42.76276,
      "lon": -112.78828,
      "elevation_m": 1406.3472,
      "state": null,
      "abbr": "066I",
      "station_type": "nws",
      "display_weight": 1.0
    },
    {
      "id": "067ID",
      "name": "W2T34",
      "lat": 44.5934,
      "lon": -116.4131,
      "elevation_m": 923.2392,
      "state": null,
      "abbr": "067I",
      "station_type": "nws",
      "display_weight": 1.0
    },
    {
      "id": "068ID",
      "name": "W2T28",
      "lat": 44.3014,
      "lon": -117.0535,
      "elevation_m": 687.6288,
      "state": null,
      "abbr": "068I",
      "station_type": "nws",
      "display_weight": 1.0
    },
    {
      "id": "069ID",
      "name": "W2T30",
      "lat": 44.34929,
      "lon": -116.92706,
      "elevation_m": 777.5448,
      "state": null,
      "abbr": "069I",
      "station_type": "nws",
      "display_weight": 1.0
    },
    {
      "id": "070ID",
      "name": "W2T29",
      "lat": 44.27646,
      "lon": -116.8524,
      "elevation_m": 714.4512,
      "state": null,
      "abbr": "070I",
      "station_type": "nws",
      "display_weight": 1.0
    },
    {
      "id": "071ID",
      "name": "CP2T14",
      "lat": 43.74444,
      "lon": -116.48806,
      "elevation_m": 796.1376,
      "state": null,
      "abbr": "071I",
      "station_type": "nws",
      "display_weight": 1.0
    },
    {
      "id": "072ID",
      "name": "W2T9",
      "lat": 43.91729,
      "lon": -116.20005,
      "elevation_m": 817.1688,
      "state": null,
      "abbr": "072I",
      "station_type": "nws",
      "display_weight": 1.0
    },
    {
      "id": "073ID",
      "name": "E2T16",
      "lat": 45.05655,
      "lon": -113.75512,
      "elevation_m": 1407.8712,
      "state": null,
      "abbr": "073I",
      "station_type": "nws",
      "display_weight": 1.0
    },
    {
      "id": "074ID",
      "name": "E2T26",
      "lat": 45.47706,
      "lon": -113.98789,
      "elevation_m": 1208.8368,
      "state": null,
      "abbr": "074I",
      "station_type": "nws",
      "display_weight": 1.0
    },
    {
      "id": "075ID",
      "name": "E2T10",
      "lat": 44.95646,
      "lon": -113.63384,
      "elevation_m": 1498.092,
      "state": null,
      "abbr": "075I",
      "station_type": "nws",
      "display_weight": 1.0
    },
    {
      "id": "076ID",
      "name": "E2T18",
      "lat": 45.10757,
      "lon": -113.69988,
      "elevation_m": 1408.176,
      "state": null,
      "abbr": "076I",
      "station_type": "nws",
      "display_weight": 1.0
    },
    {
      "id": "077ID",
      "name": "E2T3",
      "lat": 42.73246,
      "lon": -112.40914,
      "elevation_m": 1567.5864,
      "state": null,
      "abbr": "077I",
      "station_type": "nws",
      "display_weight": 1.0
    },
    {
      "id": "078ID",
      "name": "W2T22",
      "lat": 44.24845,
      "lon": -116.30123,
      "elevation_m": 957.9864,
      "state": null,
      "abbr": "078I",
      "station_type": "nws",
      "display_weight": 1.0
    },
    {
      "id": "079ID",
      "name": "S3T1",
      "lat": 43.48063,
      "lon": -115.30001,
      "elevation_m": 1283.208,
      "state": null,
      "abbr": "079I",
      "station_type": "nws",
      "display_weight": 1.0
    },
    {
      "id": "07MT",
      "name": "SAINT MARIE MARCO SITE",
      "lat": 48.410847,
      "lon": -106.515972,
      "elevation_m": 842.1624,
      "state": null,
      "abbr": "07MT",
      "station_type": "nws",
      "display_weight": 1.0
    },
    {
      "id": "080ID",
      "name": "S3T3",
      "lat": 43.68382,
      "lon": -114.409,
      "elevation_m": 1806.2448,
      "state": null,
      "abbr": "080I",
      "station_type": "nws",
      "display_weight": 1.0
    },
    {
      "id": "081ID",
      "name": "S2T6",
      "lat": 43.60664,
      "lon": -114.33092,
      "elevation_m": 1729.1304,
      "state": null,
      "abbr": "081I",
      "station_type": "nws",
      "display_weight": 1.0
    },
    {
      "id": "082ID",
      "name": "E2T12",
      "lat": 45.01074,
      "lon": -113.96619,
      "elevation_m": 1650.1872,
      "state": null,
      "abbr": "082I",
      "station_type": "nws",
      "display_weight": 1.0
    },
    {
      "id": "083ID",
      "name": "E2T9",
      "lat": 44.94899,
      "lon": -113.98388,
      "elevation_m": 1501.14,
      "state": null,
      "abbr": "083I",
      "station_type": "nws",
      "display_weight": 1.0
    },
    {
      "id": "085ID",
      "name": "E3T1",
      "lat": 42.77284,
      "lon": -112.40312,
      "elevation_m": 1463.04,
      "state": null,
      "abbr": "085I",
      "station_type": "nws",
      "display_weight": 1.0
    },
    {
      "id": "1588W",
      "name": "Roche Harbor Airport",
      "lat": 48.61082,
      "lon": -123.14792,
      "elevation_m": 24.9936,
      "state": null,
      "abbr": "1588",
      "station_type": "nws",
      "display_weight": 1.0
    },
    {
      "id": "3CLO3",
      "name": "CLATSOP SPIT NEAR WARRENTON 6NW",
      "lat": 46.2263,
      "lon": -124.0132,
      "elevation_m": 8.5344,
      "state": null,
      "abbr": "3CLO",
      "station_type": "nws",
      "display_weight": 1.0
    },
    {
      "id": "46088",
      "name": "Buoy 46088",
      "lat": 48.3,
      "lon": -123.2,
      "elevation_m": 0,
      "state": null,
      "abbr": "4608",
      "station_type": "nws",
      "display_weight": 1.0
    },
    {
      "id": "46120",
      "name": "Pt Wells (Univ. of Washington)",
      "lat": 47.8,
      "lon": -122.4,
      "elevation_m": 0,
      "state": null,
      "abbr": "4612",
      "station_type": "nws",
      "display_weight": 1.0
    },
    {
      "id": "46211",
      "name": "Buoy 46211",
      "lat": 46.9,
      "lon": -124.2,
      "elevation_m": 0,
      "state": null,
      "abbr": "4621",
      "station_type": "nws",
      "display_weight": 1.0
    },
    {
      "id": "46243",
      "name": "Buoy 46243",
      "lat": 46.2,
      "lon": -124.1,
      "elevation_m": 0,
      "state": null,
      "abbr": "4624",
      "station_type": "nws",
      "display_weight": 1.0
    },
    {
      "id": "46267",
      "name": "Angeles Point",
      "lat": 48.173,
      "lon": -123.607,
      "elevation_m": 78.0288,
      "state": null,
      "abbr": "4626",
      "station_type": "nws",
      "display_weight": 1.0
    },
    {
      "id": "53S",
      "name": "Point Wilson",
      "lat": 48.14417,
      "lon": -122.75444,
      "elevation_m": 4.572,
      "state": null,
      "abbr": "53S",
      "station_type": "nws",
      "display_weight": 1.0
    },
    {
      "id": "82SW1",
      "name": "Cape Disappointment",
      "lat": 46.28333,
      "lon": -124.0523,
      "elevation_m": 36.576,
      "state": null,
      "abbr": "82SW",
      "station_type": "nws",
      "display_weight": 1.0
    },
    {
      "id": "99S",
      "name": "POINT ROBINSON COAST GUARD LIGHT STATION",
      "lat": 47.38806,
      "lon": -122.37444,
      "elevation_m": 3.048,
      "state": null,
      "abbr": "99S",
      "station_type": "nws",
      "display_weight": 1.0
    },
    {
      "id": "A1058",
      "name": "Grand Teton NP - Science School",
      "lat": 43.67083,
      "lon": -110.5994,
      "elevation_m": 2124.1512,
      "state": null,
      "abbr": "A105",
      "station_type": "nws",
      "display_weight": 1.0
    },
    {
      "id": "A1088",
      "name": "Kennewick-Metaline",
      "lat": 46.2183,
      "lon": -119.2015,
      "elevation_m": 156.0576,
      "state": null,
      "abbr": "A108",
      "station_type": "nws",
      "display_weight": 1.0
    },
    {
      "id": "A1092",
      "name": "Colville-E 1st St",
      "lat": 48.54469,
      "lon": -117.90322,
      "elevation_m": 492.8616,
      "state": null,
      "abbr": "A109",
      "station_type": "nws",
      "display_weight": 1.0
    },
    {
      "id": "A1093",
      "name": "Neah Bay 2-Makah Tribe",
      "lat": 48.36606,
      "lon": -124.61005,
      "elevation_m": 3.9624,
      "state": null,
      "abbr": "A109",
      "station_type": "nws",
      "display_weight": 1.0
    },
    {
      "id": "A1094",
      "name": "Omak-Colville Tribe",
      "lat": 48.39999,
      "lon": -119.51896,
      "elevation_m": 259.9944,
      "state": null,
      "abbr": "A109",
      "station_type": "nws",
      "display_weight": 1.0
    },
    {
      "id": "A1123",
      "name": "South Pass",
      "lat": 42.5275,
      "lon": -108.7203,
      "elevation_m": 2527.0968,
      "state": null,
      "abbr": "A112",
      "station_type": "nws",
      "display_weight": 1.0
    },
    {
      "id": "A1138",
      "name": "Casper Gaseous",
      "lat": 42.82231,
      "lon": -106.36501,
      "elevation_m": 1588.9224,
      "state": null,
      "abbr": "A113",
      "station_type": "nws",
      "display_weight": 1.0
    },
    {
      "id": "A1141",
      "name": "Wenatchee-Fifth St",
      "lat": 47.43061,
      "lon": -120.34195,
      "elevation_m": 246.888,
      "state": null,
      "abbr": "A114",
      "station_type": "nws",
      "display_weight": 1.0
    },
    {
      "id": "A1322",
      "name": "Pocatello Garrett and Gould",
      "lat": 42.8767,
      "lon": -112.4603,
      "elevation_m": 1360.932,
      "state": null,
      "abbr": "A132",
      "station_type": "nws",
      "display_weight": 1.0
    },
    {
      "id": "A1327",
      "name": "Kimberly",
      "lat": 42.33196,
      "lon": -114.21304,
      "elevation_m": 1552.956,
      "state": null,
      "abbr": "A132",
      "station_type": "nws",
      "display_weight": 1.0
    },
    {
      "id": "A1332",
      "name": "Pinehurst",
      "lat": 47.53671,
      "lon": -116.23687,
      "elevation_m": 676.9608,
      "state": null,
      "abbr": "A133",
      "station_type": "nws",
      "display_weight": 1.0
    },
    {
      "id": "A1381",
      "name": "Enumclaw Mud Mt (SO)",
      "lat": 47.1411,
      "lon": -121.9379,
      "elevation_m": 396.8496,
      "state": null,
      "abbr": "A138",
      "station_type": "nws",
      "display_weight": 1.0
    },
    {
      "id": "A1526",
      "name": "Seattle-10th & Weller",
      "lat": 47.59722,
      "lon": -122.31972,
      "elevation_m": 39.9288,
      "state": null,
      "abbr": "A152",
      "station_type": "nws",
      "display_weight": 1.0
    },
    {
      "id": "A1569",
      "name": "Sheridan PD",
      "lat": 44.81514,
      "lon": -106.95593,
      "elevation_m": 1135.0752,
      "state": null,
      "abbr": "A156",
      "station_type": "nws",
      "display_weight": 1.0
    },
    {
      "id": "A1644",
      "name": "Seattle-Duwamish",
      "lat": 47.562,
      "lon": -122.3405,
      "elevation_m": 4.8768,
      "state": null,
      "abbr": "A164",
      "station_type": "nws",
      "display_weight": 1.0
    },
    {
      "id": "A2068",
      "name": "Boundary County",
      "lat": 48.70555,
      "lon": -116.36897,
      "elevation_m": 538.8864,
      "state": null,
      "abbr": "A206",
      "station_type": "nws",
      "display_weight": 1.0
    },
    {
      "id": "A2143",
      "name": "Tacoma-S 36th St",
      "lat": 47.22634,
      "lon": -122.46256,
      "elevation_m": 104.8512,
      "state": null,
      "abbr": "A214",
      "station_type": "nws",
      "display_weight": 1.0
    },
    {
      "id": "A2208",
      "name": "Lewiston",
      "lat": 46.4085,
      "lon": -116.9914,
      "elevation_m": 284.0736,
      "state": null,
      "abbr": "A220",
      "station_type": "nws",
      "display_weight": 1.0
    },
    {
      "id": "A2213",
      "name": "Grangeville",
      "lat": 45.9313,
      "lon": -116.1152,
      "elevation_m": 1018.9464,
      "state": null,
      "abbr": "A221",
      "station_type": "nws",
      "display_weight": 1.0
    },
    {
      "id": "A2246",
      "name": "Moscow",
      "lat": 46.7282,
      "lon": -116.9546,
      "elevation_m": 794.9184,
      "state": null,
      "abbr": "A224",
      "station_type": "nws",
      "display_weight": 1.0
    },
    {
      "id": "A2327",
      "name": "Converse County Long-Term",
      "lat": 43.1,
      "lon": -105.5,
      "elevation_m": 1649.8824,
      "state": null,
      "abbr": "A232",
      "station_type": "nws",
      "display_weight": 1.0
    },
    {
      "id": "A2410",
      "name": "Salmon PM2.5",
      "lat": 45.1787,
      "lon": -113.893,
      "elevation_m": 1197.864,
      "state": null,
      "abbr": "A241",
      "station_type": "nws",
      "display_weight": 1.0
    },
    {
      "id": "A2523",
      "name": "Vancouver-Blairmont Dr (SO)",
      "lat": 45.6166,
      "lon": -122.5166,
      "elevation_m": 95.0976,
      "state": null,
      "abbr": "A252",
      "station_type": "nws",
      "display_weight": 1.0
    },
    {
      "id": "A3103",
      "name": "Nez Perce Tribe",
      "lat": 46.2756,
      "lon": -116.0216,
      "elevation_m": 940.0032,
      "state": null,
      "abbr": "A310",
      "station_type": "nws",
      "display_weight": 1.0
    },
    {
      "id": "A3446",
      "name": "Juel Spring",
      "lat": 42.373,
      "lon": -109.563,
      "elevation_m": 2129.028,
      "state": null,
      "abbr": "A344",
      "station_type": "nws",
      "display_weight": 1.0
    },
    {
      "id": "A3570",
      "name": "Malta",
      "lat": 48.31751,
      "lon": -107.86247,
      "elevation_m": 768.096,
      "state": null,
      "abbr": "A357",
      "station_type": "nws",
      "display_weight": 1.0
    },
    {
      "id": "A3578",
      "name": "Johnson County",
      "lat": 43.87483,
      "lon": -106.50974,
      "elevation_m": 1431.9504,
      "state": null,
      "abbr": "A357",
      "station_type": "nws",
      "display_weight": 1.0
    },
    {
      "id": "A3586",
      "name": "Columbia Falls",
      "lat": 48.36369,
      "lon": -114.18927,
      "elevation_m": 926.8968,
      "state": null,
      "abbr": "A358",
      "station_type": "nws",
      "display_weight": 1.0
    },
    {
      "id": "A3593",
      "name": "Billings Coburn Rd",
      "lat": 45.78658,
      "lon": -108.45878,
      "elevation_m": 1026.8712,
      "state": null,
      "abbr": "A359",
      "station_type": "nws",
      "display_weight": 1.0
    },
    {
      "id": "A3597",
      "name": "NCORE",
      "lat": 46.8505,
      "lon": -111.98716,
      "elevation_m": 1192.0728,
      "state": null,
      "abbr": "A359",
      "station_type": "nws",
      "display_weight": 1.0
    },
    {
      "id": "A3601",
      "name": "French Town - Beckwith",
      "lat": 47.01291,
      "lon": -114.22427,
      "elevation_m": 928.116,
      "state": null,
      "abbr": "A360",
      "station_type": "nws",
      "display_weight": 1.0
    },
    {
      "id": "A3622",
      "name": "Rossiter Pump House",
      "lat": 46.6588,
      "lon": -112.0131,
      "elevation_m": 1132.0272,
      "state": null,
      "abbr": "A362",
      "station_type": "nws",
      "display_weight": 1.0
    },
    {
      "id": "A3623",
      "name": "Billlings Lockwood",
      "lat": 45.80636,
      "lon": -108.42655,
      "elevation_m": 955.8528,
      "state": null,
      "abbr": "A362",
      "station_type": "nws",
      "display_weight": 1.0
    },
    {
      "id": "A3628",
      "name": "Hamilton PS 46",
      "lat": 46.24362,
      "lon": -114.15889,
      "elevation_m": 1089.9648,
      "state": null,
      "abbr": "A362",
      "station_type": "nws",
      "display_weight": 1.0
    },
    {
      "id": "A3632",
      "name": "Seeley Elementary School",
      "lat": 47.17563,
      "lon": -113.47618,
      "elevation_m": 1232.916,
      "state": null,
      "abbr": "A363",
      "station_type": "nws",
      "display_weight": 1.0
    },
    {
      "id": "A3638",
      "name": "Cody Mobile",
      "lat": 44.52612,
      "lon": -109.01673,
      "elevation_m": 1538.0208,
      "state": null,
      "abbr": "A363",
      "station_type": "nws",
      "display_weight": 1.0
    },
    {
      "id": "A3639",
      "name": "White Fish Dead End",
      "lat": 48.40052,
      "lon": -114.33597,
      "elevation_m": 925.068,
      "state": null,
      "abbr": "A363",
      "station_type": "nws",
      "display_weight": 1.0
    },
    {
      "id": "A3647",
      "name": "Lewistown",
      "lat": 47.04854,
      "lon": -109.45532,
      "elevation_m": 1259.1288,
      "state": null,
      "abbr": "A364",
      "station_type": "nws",
      "display_weight": 1.0
    },
    {
      "id": "A3649",
      "name": "Burbank-Maple Street",
      "lat": 46.2001,
      "lon": -119.0084,
      "elevation_m": 110.9472,
      "state": null,
      "abbr": "A364",
      "station_type": "nws",
      "display_weight": 1.0
    },
    {
      "id": "A3650",
      "name": "Great Falls Overlook Park",
      "lat": 47.49432,
      "lon": -111.30332,
      "elevation_m": 1019.8608,
      "state": null,
      "abbr": "A365",
      "station_type": "nws",
      "display_weight": 1.0
    },
    {
      "id": "A3651",
      "name": "Kalispell Flathead Electric",
      "lat": 48.2025,
      "lon": -114.30556,
      "elevation_m": 904.9512,
      "state": null,
      "abbr": "A365",
      "station_type": "nws",
      "display_weight": 1.0
    },
    {
      "id": "A3657",
      "name": "Thompson Falls HS",
      "lat": 47.5944,
      "lon": -115.32375,
      "elevation_m": 743.1024,
      "state": null,
      "abbr": "A365",
      "station_type": "nws",
      "display_weight": 1.0
    },
    {
      "id": "A3658",
      "name": "Butte Greely School",
      "lat": 46.0024,
      "lon": -112.50089,
      "elevation_m": 1677.924,
      "state": null,
      "abbr": "A365",
      "station_type": "nws",
      "display_weight": 1.0
    },
    {
      "id": "A3661",
      "name": "Libby Courthouse",
      "lat": 48.3841,
      "lon": -115.548,
      "elevation_m": 637.032,
      "state": null,
      "abbr": "A366",
      "station_type": "nws",
      "display_weight": 1.0
    },
    {
      "id": "A3674",
      "name": "Missoula Boyd Park",
      "lat": 46.8423,
      "lon": -114.02055,
      "elevation_m": 968.9592,
      "state": null,
      "abbr": "A367",
      "station_type": "nws",
      "display_weight": 1.0
    },
    {
      "id": "A3691",
      "name": "West Yellowstone Park Ent #2",
      "lat": 44.65701,
      "lon": -111.08962,
      "elevation_m": 2040.9408,
      "state": null,
      "abbr": "A369",
      "station_type": "nws",
      "display_weight": 1.0
    },
    {
      "id": "A3757",
      "name": "Craters of the Moon NM",
      "lat": 43.4606,
      "lon": -113.5622,
      "elevation_m": 1791.0048,
      "state": null,
      "abbr": "A375",
      "station_type": "nws",
      "display_weight": 1.0
    },
    {
      "id": "A3767",
      "name": "Glacier NP",
      "lat": 48.5103,
      "lon": -113.9956,
      "elevation_m": 969.8736,
      "state": null,
      "abbr": "A376",
      "station_type": "nws",
      "display_weight": 1.0
    },
    {
      "id": "A3792",
      "name": "Yellowstone NP",
      "lat": 44.5597,
      "lon": -110.4006,
      "elevation_m": 2407.0056,
      "state": null,
      "abbr": "A379",
      "station_type": "nws",
      "display_weight": 1.0
    },
    {
      "id": "A3795",
      "name": "Portland - Spangler Road",
      "lat": 45.25928,
      "lon": -122.588151,
      "elevation_m": 170.0784,
      "state": null,
      "abbr": "A379",
      "station_type": "nws",
      "display_weight": 1.0
    },
    {
      "id": "A3796",
      "name": "Portland - Sauvie Island",
      "lat": 45.768531,
      "lon": -122.7721,
      "elevation_m": 4.8768,
      "state": null,
      "abbr": "A379",
      "station_type": "nws",
      "display_weight": 1.0
    },
    {
      "id": "A3797",
      "name": "Prineville - Davidson Park",
      "lat": 44.299787,
      "lon": -120.844773,
      "elevation_m": 873.8616,
      "state": null,
      "abbr": "A379",
      "station_type": "nws",
      "display_weight": 1.0
    },
    {
      "id": "A3798",
      "name": "Bend - Road Department",
      "lat": 44.021896,
      "lon": -121.260166,
      "elevation_m": 1132.9416,
      "state": null,
      "abbr": "A379",
      "station_type": "nws",
      "display_weight": 1.0
    },
    {
      "id": "A3799",
      "name": "Burns - Washington St.",
      "lat": 43.58925,
      "lon": -119.0483,
      "elevation_m": 1267.968,
      "state": null,
      "abbr": "A379",
      "station_type": "nws",
      "display_weight": 1.0
    },
    {
      "id": "A3800",
      "name": "Medford MTV",
      "lat": 42.341987,
      "lon": -122.9102,
      "elevation_m": 408.1272,
      "state": null,
      "abbr": "A380",
      "station_type": "nws",
      "display_weight": 1.0
    },
    {
      "id": "A3801",
      "name": "Grants Pass - Parkside School",
      "lat": 42.434149,
      "lon": -123.348466,
      "elevation_m": 278.892,
      "state": null,
      "abbr": "A380",
      "station_type": "nws",
      "display_weight": 1.0
    },
    {
      "id": "A3802",
      "name": "Klamath Falls - Peterson School",
      "lat": 42.190296,
      "lon": -121.731369,
      "elevation_m": 1253.9472,
      "state": null,
      "abbr": "A380",
      "station_type": "nws",
      "display_weight": 1.0
    },
    {
      "id": "A3803",
      "name": "Lakeview - Center & M",
      "lat": 42.189215,
      "lon": -120.353969,
      "elevation_m": 1451.1528,
      "state": null,
      "abbr": "A380",
      "station_type": "nws",
      "display_weight": 1.0
    },
    {
      "id": "A3804",
      "name": "Turner - CJHS",
      "lat": 44.81029,
      "lon": -122.915085,
      "elevation_m": 102.108,
      "state": null,
      "abbr": "A380",
      "station_type": "nws",
      "display_weight": 1.0
    },
    {
      "id": "A3805",
      "name": "Portland - SE Lafayette",
      "lat": 45.496641,
      "lon": -122.602877,
      "elevation_m": 70.104,
      "state": null,
      "abbr": "A380",
      "station_type": "nws",
      "display_weight": 1.0
    },
    {
      "id": "A3806",
      "name": "Pendleton - McKay Creek",
      "lat": 45.652231,
      "lon": -118.823033,
      "elevation_m": 320.04,
      "state": null,
      "abbr": "A380",
      "station_type": "nws",
      "display_weight": 1.0
    },
    {
      "id": "A3807",
      "name": "Hermiston - Municipal Airport",
      "lat": 45.828968,
      "lon": -119.262991,
      "elevation_m": 193.8528,
      "state": null,
      "abbr": "A380",
      "station_type": "nws",
      "display_weight": 1.0
    },
    {
      "id": "A3808",
      "name": "La Grande Hall & N Sts",
      "lat": 45.3235,
      "lon": -118.0778,
      "elevation_m": 840.9432,
      "state": null,
      "abbr": "A380",
      "station_type": "nws",
      "display_weight": 1.0
    },
    {
      "id": "A3809",
      "name": "Hillsboro - Hare Field",
      "lat": 45.5285,
      "lon": -122.9724,
      "elevation_m": 53.0352,
      "state": null,
      "abbr": "A380",
      "station_type": "nws",
      "display_weight": 1.0
    },
    {
      "id": "A3810",
      "name": "Portland Near Road",
      "lat": 45.39916,
      "lon": -122.7455,
      "elevation_m": 53.9496,
      "state": null,
      "abbr": "A381",
      "station_type": "nws",
      "display_weight": 1.0
    },
    {
      "id": "A3831",
      "name": "Yellowstone- Old Faithful Snow Lodge",
      "lat": 44.37306,
      "lon": -110.831,
      "elevation_m": 2510.9424,
      "state": null,
      "abbr": "A383",
      "station_type": "nws",
      "display_weight": 1.0
    },
    {
      "id": "A3918",
      "name": "Shoshone Bannock Tribes",
      "lat": 42.58983,
      "lon": -112.45889,
      "elevation_m": 1705.0512,
      "state": null,
      "abbr": "A391",
      "station_type": "nws",
      "display_weight": 1.0
    },
    {
      "id": "A3919",
      "name": "St. Maries",
      "lat": 47.3167,
      "lon": -116.5703,
      "elevation_m": 659.892,
      "state": null,
      "abbr": "A391",
      "station_type": "nws",
      "display_weight": 1.0
    },
    {
      "id": "A3920",
      "name": "Ketchum",
      "lat": 43.68256,
      "lon": -114.37109,
      "elevation_m": 1766.9256,
      "state": null,
      "abbr": "A392",
      "station_type": "nws",
      "display_weight": 1.0
    },
    {
      "id": "A3921",
      "name": "Idaho City",
      "lat": 43.82302,
      "lon": -115.83856,
      "elevation_m": 1182.0144,
      "state": null,
      "abbr": "A392",
      "station_type": "nws",
      "display_weight": 1.0
    },
    {
      "id": "A3922",
      "name": "Garden Valley",
      "lat": 44.1045,
      "lon": -115.97239,
      "elevation_m": 940.0032,
      "state": null,
      "abbr": "A392",
      "station_type": "nws",
      "display_weight": 1.0
    },
    {
      "id": "A3923",
      "name": "Idaho Falls / Penford",
      "lat": 43.4683,
      "lon": -112.0531,
      "elevation_m": 1430.1216,
      "state": null,
      "abbr": "A392",
      "station_type": "nws",
      "display_weight": 1.0
    },
    {
      "id": "A3930",
      "name": "Twin Falls PM25",
      "lat": 42.56509,
      "lon": -114.49472,
      "elevation_m": 1128.0648,
      "state": null,
      "abbr": "A393",
      "station_type": "nws",
      "display_weight": 1.0
    },
    {
      "id": "A3931",
      "name": "McCall",
      "lat": 44.8902,
      "lon": -116.1065,
      "elevation_m": 1520.952,
      "state": null,
      "abbr": "A393",
      "station_type": "nws",
      "display_weight": 1.0
    },
    {
      "id": "A4198",
      "name": "Baker City - Forest Service",
      "lat": 44.78822,
      "lon": -117.8446,
      "elevation_m": 1042.1112,
      "state": null,
      "abbr": "A419",
      "station_type": "nws",
      "display_weight": 1.0
    },
    {
      "id": "A4201",
      "name": "Sisters Forest Service",
      "lat": 44.2921,
      "lon": -121.5555,
      "elevation_m": 975.0552,
      "state": null,
      "abbr": "A420",
      "station_type": "nws",
      "display_weight": 1.0
    },
    {
      "id": "A4202",
      "name": "Bend - Pump Station",
      "lat": 44.06392,
      "lon": -121.31255,
      "elevation_m": 1096.0608,
      "state": null,
      "abbr": "A420",
      "station_type": "nws",
      "display_weight": 1.0
    },
    {
      "id": "A4204",
      "name": "John Day Dayton St",
      "lat": 44.418,
      "lon": -118.9513,
      "elevation_m": 939.0888,
      "state": null,
      "abbr": "A420",
      "station_type": "nws",
      "display_weight": 1.0
    },
    {
      "id": "A4205",
      "name": "Shady Cove - Shady Cove School",
      "lat": 42.62323,
      "lon": -122.81016,
      "elevation_m": 434.0352,
      "state": null,
      "abbr": "A420",
      "station_type": "nws",
      "display_weight": 1.0
    },
    {
      "id": "A4206",
      "name": "Ashland Fire Dept",
      "lat": 42.1941,
      "lon": -122.7086,
      "elevation_m": 600.1512,
      "state": null,
      "abbr": "A420",
      "station_type": "nws",
      "display_weight": 1.0
    },
    {
      "id": "A4208",
      "name": "Madras - Westside School",
      "lat": 44.6306,
      "lon": -121.1316,
      "elevation_m": 690.9816,
      "state": null,
      "abbr": "A420",
      "station_type": "nws",
      "display_weight": 1.0
    },
    {
      "id": "A4209",
      "name": "Cave Junction Forest Service",
      "lat": 42.1617,
      "lon": -123.64835,
      "elevation_m": 415.1376,
      "state": null,
      "abbr": "A420",
      "station_type": "nws",
      "display_weight": 1.0
    },
    {
      "id": "A4210",
      "name": "Eugene - Highway 99",
      "lat": 44.06722,
      "lon": -123.14135,
      "elevation_m": 123.1392,
      "state": null,
      "abbr": "A421",
      "station_type": "nws",
      "display_weight": 1.0
    },
    {
      "id": "A4211",
      "name": "Eugene - Amazon Park",
      "lat": 44.0263,
      "lon": -123.08377,
      "elevation_m": 134.112,
      "state": null,
      "abbr": "A421",
      "station_type": "nws",
      "display_weight": 1.0
    },
    {
      "id": "A4212",
      "name": "Springfield City Hall",
      "lat": 44.04668,
      "lon": -123.01774,
      "elevation_m": 142.0368,
      "state": null,
      "abbr": "A421",
      "station_type": "nws",
      "display_weight": 1.0
    },
    {
      "id": "A4213",
      "name": "Oakridge - Willamette Activity Center",
      "lat": 43.74436,
      "lon": -122.48051,
      "elevation_m": 344.1192,
      "state": null,
      "abbr": "A421",
      "station_type": "nws",
      "display_weight": 1.0
    },
    {
      "id": "A4214",
      "name": "Cottage Grove City Shops",
      "lat": 43.7995,
      "lon": -123.0535,
      "elevation_m": 195.9864,
      "state": null,
      "abbr": "A421",
      "station_type": "nws",
      "display_weight": 1.0
    },
    {
      "id": "A4215",
      "name": "Albany - Calapooia School",
      "lat": 44.61569,
      "lon": -123.09146,
      "elevation_m": 71.0184,
      "state": null,
      "abbr": "A421",
      "station_type": "nws",
      "display_weight": 1.0
    },
    {
      "id": "A4217",
      "name": "Lyons",
      "lat": 44.77874,
      "lon": -122.61705,
      "elevation_m": 202.0824,
      "state": null,
      "abbr": "A421",
      "station_type": "nws",
      "display_weight": 1.0
    },
    {
      "id": "A4218",
      "name": "Silverton",
      "lat": 45.015,
      "lon": -122.79038,
      "elevation_m": 68.8848,
      "state": null,
      "abbr": "A421",
      "station_type": "nws",
      "display_weight": 1.0
    },
    {
      "id": "A4219",
      "name": "Salem - State Hospital",
      "lat": 44.94311,
      "lon": -123.00593,
      "elevation_m": 61.8744,
      "state": null,
      "abbr": "A421",
      "station_type": "nws",
      "display_weight": 1.0
    },
    {
      "id": "A4220",
      "name": "Cove - City Hall",
      "lat": 45.30088,
      "lon": -117.8129,
      "elevation_m": 872.9472,
      "state": null,
      "abbr": "A422",
      "station_type": "nws",
      "display_weight": 1.0
    },
    {
      "id": "A4221",
      "name": "Enterprise - US Forest Service",
      "lat": 45.42635,
      "lon": -117.29607,
      "elevation_m": 1163.1168,
      "state": null,
      "abbr": "A422",
      "station_type": "nws",
      "display_weight": 1.0
    },
    {
      "id": "A4222",
      "name": "Beaverton - Highland Park School",
      "lat": 45.4702,
      "lon": -122.8159,
      "elevation_m": 81.0768,
      "state": null,
      "abbr": "A422",
      "station_type": "nws",
      "display_weight": 1.0
    },
    {
      "id": "A4343",
      "name": "Ritzville-Alder St",
      "lat": 47.128,
      "lon": -118.3819,
      "elevation_m": 549.8592,
      "state": null,
      "abbr": "A434",
      "station_type": "nws",
      "display_weight": 1.0
    },
    {
      "id": "A4344",
      "name": "Clarkston-13th St",
      "lat": 46.4256,
      "lon": -117.0598,
      "elevation_m": 231.0384,
      "state": null,
      "abbr": "A434",
      "station_type": "nws",
      "display_weight": 1.0
    },
    {
      "id": "A4345",
      "name": "Chelan-Woodin Ave",
      "lat": 47.83861,
      "lon": -120.02306,
      "elevation_m": 334.9752,
      "state": null,
      "abbr": "A434",
      "station_type": "nws",
      "display_weight": 1.0
    },
    {
      "id": "A4346",
      "name": "Leavenworth-Evans St",
      "lat": 47.5988,
      "lon": -120.6647,
      "elevation_m": 362.1024,
      "state": null,
      "abbr": "A434",
      "station_type": "nws",
      "display_weight": 1.0
    },
    {
      "id": "A4347",
      "name": "Port Angeles-E 5th St",
      "lat": 48.115,
      "lon": -123.43643,
      "elevation_m": 29.8704,
      "state": null,
      "abbr": "A434",
      "station_type": "nws",
      "display_weight": 1.0
    },
    {
      "id": "A4348",
      "name": "Yacolt-Yacolt Rd",
      "lat": 45.8639,
      "lon": -122.41089,
      "elevation_m": 221.8944,
      "state": null,
      "abbr": "A434",
      "station_type": "nws",
      "display_weight": 1.0
    },
    {
      "id": "A4349",
      "name": "Vancouver-NE 84th Ave",
      "lat": 45.64336,
      "lon": -122.58737,
      "elevation_m": 64.9224,
      "state": null,
      "abbr": "A434",
      "station_type": "nws",
      "display_weight": 1.0
    },
    {
      "id": "A4350",
      "name": "Dayton-W Main",
      "lat": 46.318,
      "lon": -117.985,
      "elevation_m": 484.9368,
      "state": null,
      "abbr": "A435",
      "station_type": "nws",
      "display_weight": 1.0
    },
    {
      "id": "A4351",
      "name": "Longview-30th Ave",
      "lat": 46.1394,
      "lon": -122.9619,
      "elevation_m": 3.9624,
      "state": null,
      "abbr": "A435",
      "station_type": "nws",
      "display_weight": 1.0
    },
    {
      "id": "A4352",
      "name": "Mesa-Pepoit Way (temp SO)",
      "lat": 46.5754,
      "lon": -119.0021,
      "elevation_m": 223.1136,
      "state": null,
      "abbr": "A435",
      "station_type": "nws",
      "display_weight": 1.0
    },
    {
      "id": "A4353",
      "name": "Moses Lake-Balsam St",
      "lat": 47.1303,
      "lon": -119.2726,
      "elevation_m": 323.088,
      "state": null,
      "abbr": "A435",
      "station_type": "nws",
      "display_weight": 1.0
    },
    {
      "id": "A4354",
      "name": "Quincy 3rd",
      "lat": 47.24126,
      "lon": -119.84595,
      "elevation_m": 395.9352,
      "state": null,
      "abbr": "A435",
      "station_type": "nws",
      "display_weight": 1.0
    },
    {
      "id": "A4355",
      "name": "Taholah-Quinault Tribe",
      "lat": 47.3398,
      "lon": -124.2918,
      "elevation_m": 14.0208,
      "state": null,
      "abbr": "A435",
      "station_type": "nws",
      "display_weight": 1.0
    },
    {
      "id": "A4356",
      "name": "Aberdeen-Division St",
      "lat": 46.9772,
      "lon": -123.8317,
      "elevation_m": 4.8768,
      "state": null,
      "abbr": "A435",
      "station_type": "nws",
      "display_weight": 1.0
    },
    {
      "id": "A4357",
      "name": "Oak Harbor-SW 6th (US)",
      "lat": 48.2944,
      "lon": -122.66,
      "elevation_m": 15.8496,
      "state": null,
      "abbr": "A435",
      "station_type": "nws",
      "display_weight": 1.0
    },
    {
      "id": "A4358",
      "name": "Port Townsend-San Juan",
      "lat": 48.1291,
      "lon": -122.7789,
      "elevation_m": 9.144,
      "state": null,
      "abbr": "A435",
      "station_type": "nws",
      "display_weight": 1.0
    },
    {
      "id": "A4359",
      "name": "Seattle-South Park",
      "lat": 47.5309,
      "lon": -122.3208,
      "elevation_m": 3.9624,
      "state": null,
      "abbr": "A435",
      "station_type": "nws",
      "display_weight": 1.0
    },
    {
      "id": "A4360",
      "name": "Bremerton-Spruce Ave",
      "lat": 47.59268,
      "lon": -122.6274,
      "elevation_m": 78.0288,
      "state": null,
      "abbr": "A436",
      "station_type": "nws",
      "display_weight": 1.0
    },
    {
      "id": "A4361",
      "name": "Ellensburg-Ruby St",
      "lat": 46.9936,
      "lon": -120.545,
      "elevation_m": 466.9536,
      "state": null,
      "abbr": "A436",
      "station_type": "nws",
      "display_weight": 1.0
    },
    {
      "id": "A4362",
      "name": "Chehalis-Market Blvd",
      "lat": 46.66409,
      "lon": -122.96732,
      "elevation_m": 64.9224,
      "state": null,
      "abbr": "A436",
      "station_type": "nws",
      "display_weight": 1.0
    },
    {
      "id": "A4363",
      "name": "Shelton-W Franklin",
      "lat": 47.21355,
      "lon": -123.10081,
      "elevation_m": 3.9624,
      "state": null,
      "abbr": "A436",
      "station_type": "nws",
      "display_weight": 1.0
    },
    {
      "id": "A4364",
      "name": "Twisp-Glover St",
      "lat": 48.3645,
      "lon": -120.1211,
      "elevation_m": 491.0328,
      "state": null,
      "abbr": "A436",
      "station_type": "nws",
      "display_weight": 1.0
    },
    {
      "id": "A4366",
      "name": "Mt Rainier- Jackson  Visitor Ctr",
      "lat": 46.7841,
      "lon": -121.7403,
      "elevation_m": 1634.0328,
      "state": null,
      "abbr": "A436",
      "station_type": "nws",
      "display_weight": 1.0
    },
    {
      "id": "A4367",
      "name": "Anacortes-202 Ave (SO-AQS)",
      "lat": 48.52059,
      "lon": -122.61428,
      "elevation_m": 3.048,
      "state": null,
      "abbr": "A436",
      "station_type": "nws",
      "display_weight": 1.0
    },
    {
      "id": "A4368",
      "name": "Mt Vernon-2nd Ave",
      "lat": 48.4102,
      "lon": -122.3376,
      "elevation_m": 6.096,
      "state": null,
      "abbr": "A436",
      "station_type": "nws",
      "display_weight": 1.0
    },
    {
      "id": "A4369",
      "name": "Anacortes-Bartholomew Rd (US)",
      "lat": 48.4654,
      "lon": -122.56,
      "elevation_m": 21.9456,
      "state": null,
      "abbr": "A436",
      "station_type": "nws",
      "display_weight": 1.0
    },
    {
      "id": "A4370",
      "name": "Spokane-Monroe St.",
      "lat": 47.6997,
      "lon": -117.4263,
      "elevation_m": 623.9256,
      "state": null,
      "abbr": "A437",
      "station_type": "nws",
      "display_weight": 1.0
    },
    {
      "id": "A4371",
      "name": "Colbert-Greenbluff",
      "lat": 47.80823,
      "lon": -117.34327,
      "elevation_m": 579.12,
      "state": null,
      "abbr": "A437",
      "station_type": "nws",
      "display_weight": 1.0
    },
    {
      "id": "A4372",
      "name": "Spokane-E Broadway Ave",
      "lat": 47.66396,
      "lon": -117.25765,
      "elevation_m": 613.8672,
      "state": null,
      "abbr": "A437",
      "station_type": "nws",
      "display_weight": 1.0
    },
    {
      "id": "A4375",
      "name": "Walla Walla-12th St",
      "lat": 46.0588,
      "lon": -118.3514,
      "elevation_m": 274.9296,
      "state": null,
      "abbr": "A437",
      "station_type": "nws",
      "display_weight": 1.0
    },
    {
      "id": "A4376",
      "name": "Pullman-Dexter Ave",
      "lat": 46.7245,
      "lon": -117.1801,
      "elevation_m": 769.9248,
      "state": null,
      "abbr": "A437",
      "station_type": "nws",
      "display_weight": 1.0
    },
    {
      "id": "A4377",
      "name": "Lacrosse-Hill St",
      "lat": 46.8153,
      "lon": -117.8739,
      "elevation_m": 463.9056,
      "state": null,
      "abbr": "A437",
      "station_type": "nws",
      "display_weight": 1.0
    },
    {
      "id": "A4378",
      "name": "Rosalia-Josephine St",
      "lat": 47.2313,
      "lon": -117.3685,
      "elevation_m": 690.0672,
      "state": null,
      "abbr": "A437",
      "station_type": "nws",
      "display_weight": 1.0
    },
    {
      "id": "A4379",
      "name": "Sunnyside-S 16th",
      "lat": 46.32033,
      "lon": -119.9981,
      "elevation_m": 224.9424,
      "state": null,
      "abbr": "A437",
      "station_type": "nws",
      "display_weight": 1.0
    },
    {
      "id": "A4380",
      "name": "Yakima-4th Ave",
      "lat": 46.59495,
      "lon": -120.51228,
      "elevation_m": 323.088,
      "state": null,
      "abbr": "A438",
      "station_type": "nws",
      "display_weight": 1.0
    },
    {
      "id": "A4394",
      "name": "Cut Bank",
      "lat": 48.60741,
      "lon": -112.36384,
      "elevation_m": 1167.9936,
      "state": null,
      "abbr": "A439",
      "station_type": "nws",
      "display_weight": 1.0
    },
    {
      "id": "A4479",
      "name": "The Dalles - Cherry Heights",
      "lat": 45.60242,
      "lon": -121.20339,
      "elevation_m": 57.912,
      "state": null,
      "abbr": "A447",
      "station_type": "nws",
      "display_weight": 1.0
    },
    {
      "id": "A4487",
      "name": "Lake Forest Park-Town Center",
      "lat": 47.755,
      "lon": -122.2806,
      "elevation_m": 17.0688,
      "state": null,
      "abbr": "A448",
      "station_type": "nws",
      "display_weight": 1.0
    },
    {
      "id": "A4488",
      "name": "Bellevue-SE 12th",
      "lat": 47.60086,
      "lon": -122.1484,
      "elevation_m": 92.964,
      "state": null,
      "abbr": "A448",
      "station_type": "nws",
      "display_weight": 1.0
    },
    {
      "id": "A4489",
      "name": "Bellingham Pacifc",
      "lat": 48.76004,
      "lon": -122.45646,
      "elevation_m": 22.86,
      "state": null,
      "abbr": "A448",
      "station_type": "nws",
      "display_weight": 1.0
    },
    {
      "id": "A4496",
      "name": "Eugene - Wilkes Dr.",
      "lat": 44.1158,
      "lon": -123.12107,
      "elevation_m": 117.9576,
      "state": null,
      "abbr": "A449",
      "station_type": "nws",
      "display_weight": 1.0
    },
    {
      "id": "A4499",
      "name": "Lake Forest Park-Town Center",
      "lat": 47.755,
      "lon": -122.2806,
      "elevation_m": 17.0688,
      "state": null,
      "abbr": "A449",
      "station_type": "nws",
      "display_weight": 1.0
    },
    {
      "id": "A4500",
      "name": "Bellevue-SE 12th",
      "lat": 47.60086,
      "lon": -122.1484,
      "elevation_m": 92.964,
      "state": null,
      "abbr": "A450",
      "station_type": "nws",
      "display_weight": 1.0
    },
    {
      "id": "A4501",
      "name": "Bellingham Pacifc",
      "lat": 48.76004,
      "lon": -122.45646,
      "elevation_m": 22.86,
      "state": null,
      "abbr": "A450",
      "station_type": "nws",
      "display_weight": 1.0
    },
    {
      "id": "A4503",
      "name": "Preston PM25 BAM",
      "lat": 42.08222,
      "lon": -111.86417,
      "elevation_m": 1434.084,
      "state": null,
      "abbr": "A450",
      "station_type": "nws",
      "display_weight": 1.0
    },
    {
      "id": "A4511",
      "name": "Mobile-Pomeroy",
      "lat": 46.47444,
      "lon": -117.61476,
      "elevation_m": 548.9448,
      "state": null,
      "abbr": "A451",
      "station_type": "nws",
      "display_weight": 1.0
    },
    {
      "id": "A4512",
      "name": "Auburn M St SE",
      "lat": 47.2875,
      "lon": -122.2144,
      "elevation_m": 35.9664,
      "state": null,
      "abbr": "A451",
      "station_type": "nws",
      "display_weight": 1.0
    },
    {
      "id": "A4514",
      "name": "Maple Falls-Azure Way",
      "lat": 48.9477,
      "lon": -122.1471,
      "elevation_m": 160.9344,
      "state": null,
      "abbr": "A451",
      "station_type": "nws",
      "display_weight": 1.0
    },
    {
      "id": "A4516",
      "name": "Havre",
      "lat": 48.55102,
      "lon": -109.67748,
      "elevation_m": 758.0376,
      "state": null,
      "abbr": "A451",
      "station_type": "nws",
      "display_weight": 1.0
    },
    {
      "id": "A4559",
      "name": "Chiloquin",
      "lat": 42.54108,
      "lon": -121.92164,
      "elevation_m": 1306.9824,
      "state": null,
      "abbr": "A455",
      "station_type": "nws",
      "display_weight": 1.0
    },
    {
      "id": "A4560",
      "name": "Raymone-4th St",
      "lat": 46.68822,
      "lon": -123.73176,
      "elevation_m": 4.2672,
      "state": null,
      "abbr": "A456",
      "station_type": "nws",
      "display_weight": 1.0
    },
    {
      "id": "A4579",
      "name": "Nursery Rd",
      "lat": 47.71539,
      "lon": -116.82725,
      "elevation_m": 685.1904,
      "state": null,
      "abbr": "A457",
      "station_type": "nws",
      "display_weight": 1.0
    },
    {
      "id": "A4580",
      "name": "James Town Mobile",
      "lat": 41.55643,
      "lon": -109.53044,
      "elevation_m": 1859.5848,
      "state": null,
      "abbr": "A458",
      "station_type": "nws",
      "display_weight": 1.0
    },
    {
      "id": "A4624",
      "name": "White Pine",
      "lat": 43.5776,
      "lon": -116.17816,
      "elevation_m": 836.9808,
      "state": null,
      "abbr": "A462",
      "station_type": "nws",
      "display_weight": 1.0
    },
    {
      "id": "A4625",
      "name": "Pocatello STP",
      "lat": 42.9164,
      "lon": -112.5158,
      "elevation_m": 1350.8736,
      "state": null,
      "abbr": "A462",
      "station_type": "nws",
      "display_weight": 1.0
    },
    {
      "id": "A4626",
      "name": "Soda Springs SO2",
      "lat": 42.6953,
      "lon": -111.5939,
      "elevation_m": 1825.1424,
      "state": null,
      "abbr": "A462",
      "station_type": "nws",
      "display_weight": 1.0
    },
    {
      "id": "A4647",
      "name": "Dillon",
      "lat": 45.20645,
      "lon": -112.64252,
      "elevation_m": 1566.9768,
      "state": null,
      "abbr": "A464",
      "station_type": "nws",
      "display_weight": 1.0
    },
    {
      "id": "A4684",
      "name": "Talent - Rapp Lane",
      "lat": 42.22989,
      "lon": -122.7877,
      "elevation_m": 565.0992,
      "state": null,
      "abbr": "A468",
      "station_type": "nws",
      "display_weight": 1.0
    },
    {
      "id": "A4685",
      "name": "Portland Cully Helensview School",
      "lat": 45.5622,
      "lon": -122.57562,
      "elevation_m": 24.9936,
      "state": null,
      "abbr": "A468",
      "station_type": "nws",
      "display_weight": 1.0
    },
    {
      "id": "A4719",
      "name": "Mill City",
      "lat": 44.75209,
      "lon": -122.47967,
      "elevation_m": 255.1176,
      "state": null,
      "abbr": "A471",
      "station_type": "nws",
      "display_weight": 1.0
    },
    {
      "id": "A4721",
      "name": "Coos Bay Marshfield HS",
      "lat": 43.36257,
      "lon": -124.21885,
      "elevation_m": 7.9248,
      "state": null,
      "abbr": "A472",
      "station_type": "nws",
      "display_weight": 1.0
    },
    {
      "id": "A4722",
      "name": "Redmond High School",
      "lat": 44.275,
      "lon": -121.1905,
      "elevation_m": 908.9136,
      "state": null,
      "abbr": "A472",
      "station_type": "nws",
      "display_weight": 1.0
    },
    {
      "id": "A4726",
      "name": "Bend NE 8th and Emerson",
      "lat": 44.05466,
      "lon": -121.29407,
      "elevation_m": 1120.14,
      "state": null,
      "abbr": "A472",
      "station_type": "nws",
      "display_weight": 1.0
    },
    {
      "id": "A4727",
      "name": "La Pine Rural Fire Dept",
      "lat": 43.70376,
      "lon": -121.5273,
      "elevation_m": 1293.876,
      "state": null,
      "abbr": "A472",
      "station_type": "nws",
      "display_weight": 1.0
    },
    {
      "id": "A4730",
      "name": "Gresham Centennial HS",
      "lat": 45.4962,
      "lon": -122.4834,
      "elevation_m": 84.4296,
      "state": null,
      "abbr": "A473",
      "station_type": "nws",
      "display_weight": 1.0
    },
    {
      "id": "A4736",
      "name": "Tillamook Forestry Dept",
      "lat": 45.45735,
      "lon": -123.80281,
      "elevation_m": 18.8976,
      "state": null,
      "abbr": "A473",
      "station_type": "nws",
      "display_weight": 1.0
    },
    {
      "id": "A4737",
      "name": "Brookings CPFA",
      "lat": 42.0546,
      "lon": -124.27677,
      "elevation_m": 50.5968,
      "state": null,
      "abbr": "A473",
      "station_type": "nws",
      "display_weight": 1.0
    },
    {
      "id": "A4739",
      "name": "Hood River West Side FD",
      "lat": 45.685138,
      "lon": -121.527478,
      "elevation_m": 170.9928,
      "state": null,
      "abbr": "A473",
      "station_type": "nws",
      "display_weight": 1.0
    },
    {
      "id": "A4740",
      "name": "May Roberts Elementary School",
      "lat": 44.033365,
      "lon": -116.9697,
      "elevation_m": 654.7104,
      "state": null,
      "abbr": "A474",
      "station_type": "nws",
      "display_weight": 1.0
    },
    {
      "id": "A4741",
      "name": "Dallas LaCreole Middle School",
      "lat": 44.92261,
      "lon": -123.301956,
      "elevation_m": 96.3168,
      "state": null,
      "abbr": "A474",
      "station_type": "nws",
      "display_weight": 1.0
    },
    {
      "id": "A4742",
      "name": "Riverton Mobile",
      "lat": 43.024214,
      "lon": -108.363703,
      "elevation_m": 1499.3112,
      "state": null,
      "abbr": "A474",
      "station_type": "nws",
      "display_weight": 1.0
    },
    {
      "id": "A4747",
      "name": "Roseburg Fire Dept",
      "lat": 43.15291,
      "lon": -123.38221,
      "elevation_m": 150.2664,
      "state": null,
      "abbr": "A474",
      "station_type": "nws",
      "display_weight": 1.0
    },
    {
      "id": "A4751",
      "name": "Portland Jefferson High School",
      "lat": 45.5609,
      "lon": -122.67152,
      "elevation_m": 65.532,
      "state": null,
      "abbr": "A475",
      "station_type": "nws",
      "display_weight": 1.0
    },
    {
      "id": "A4756",
      "name": "Forest Grove Pacific University",
      "lat": 45.52483,
      "lon": -123.10554,
      "elevation_m": 56.0832,
      "state": null,
      "abbr": "A475",
      "station_type": "nws",
      "display_weight": 1.0
    },
    {
      "id": "A4779",
      "name": "Estacada Clackamas River Elementary School",
      "lat": 45.29141,
      "lon": -122.33262,
      "elevation_m": 158.1912,
      "state": null,
      "abbr": "A477",
      "station_type": "nws",
      "display_weight": 1.0
    },
    {
      "id": "A4780",
      "name": "Airway Heights-West 12th",
      "lat": 47.64535,
      "lon": -117.58903,
      "elevation_m": 729.6912,
      "state": null,
      "abbr": "A478",
      "station_type": "nws",
      "display_weight": 1.0
    },
    {
      "id": "A4781",
      "name": "Umatilla",
      "lat": 46.2026,
      "lon": -117.9539,
      "elevation_m": 680.3136,
      "state": null,
      "abbr": "A478",
      "station_type": "nws",
      "display_weight": 1.0
    },
    {
      "id": "A4785",
      "name": "Jackson SLAMS",
      "lat": 43.45776,
      "lon": -110.79799,
      "elevation_m": 1862.9376,
      "state": null,
      "abbr": "A478",
      "station_type": "nws",
      "display_weight": 1.0
    },
    {
      "id": "A4809",
      "name": "Laramie I-80 Mobile",
      "lat": 41.32417,
      "lon": -105.61489,
      "elevation_m": 2179.0152,
      "state": null,
      "abbr": "A480",
      "station_type": "nws",
      "display_weight": 1.0
    },
    {
      "id": "A4812",
      "name": "Lander SLAMS",
      "lat": 42.84227,
      "lon": -108.73556,
      "elevation_m": 1626.108,
      "state": null,
      "abbr": "A481",
      "station_type": "nws",
      "display_weight": 1.0
    },
    {
      "id": "A4814",
      "name": "Gillette SLAMS",
      "lat": 44.288,
      "lon": -105.51702,
      "elevation_m": 1416.1008,
      "state": null,
      "abbr": "A481",
      "station_type": "nws",
      "display_weight": 1.0
    },
    {
      "id": "A4868",
      "name": "Toledo NE Hwy20 and NW A St",
      "lat": 44.6244,
      "lon": -123.94006,
      "elevation_m": 3.048,
      "state": null,
      "abbr": "A486",
      "station_type": "nws",
      "display_weight": 1.0
    },
    {
      "id": "A4869",
      "name": "Salem Chemeketa Community College",
      "lat": 44.97657,
      "lon": -122.97631,
      "elevation_m": 56.0832,
      "state": null,
      "abbr": "A486",
      "station_type": "nws",
      "display_weight": 1.0
    },
    {
      "id": "A4870",
      "name": "Corvallis EPA Office",
      "lat": 44.5658,
      "lon": -123.29271,
      "elevation_m": 75.8952,
      "state": null,
      "abbr": "A487",
      "station_type": "nws",
      "display_weight": 1.0
    },
    {
      "id": "A4874",
      "name": "McMinnville High School",
      "lat": 45.21956,
      "lon": -123.19298,
      "elevation_m": 47.244,
      "state": null,
      "abbr": "A487",
      "station_type": "nws",
      "display_weight": 1.0
    },
    {
      "id": "A4875",
      "name": "Soap Lake",
      "lat": 47.38556,
      "lon": -119.48985,
      "elevation_m": 341.376,
      "state": null,
      "abbr": "A487",
      "station_type": "nws",
      "display_weight": 1.0
    },
    {
      "id": "A4876",
      "name": "Prosser-Highland Dr",
      "lat": 46.2089,
      "lon": -119.75267,
      "elevation_m": 67.3608,
      "state": null,
      "abbr": "A487",
      "station_type": "nws",
      "display_weight": 1.0
    },
    {
      "id": "A4901",
      "name": "Nampa Ridgecrest",
      "lat": 43.59934,
      "lon": -116.52887,
      "elevation_m": 783.9456,
      "state": null,
      "abbr": "A490",
      "station_type": "nws",
      "display_weight": 1.0
    },
    {
      "id": "A4903",
      "name": "Havre",
      "lat": 48.54037,
      "lon": -109.68443,
      "elevation_m": 779.9832,
      "state": null,
      "abbr": "A490",
      "station_type": "nws",
      "display_weight": 1.0
    },
    {
      "id": "A4905",
      "name": "Sandpoint",
      "lat": 48.272,
      "lon": -116.569,
      "elevation_m": 638.8608,
      "state": null,
      "abbr": "A490",
      "station_type": "nws",
      "display_weight": 1.0
    },
    {
      "id": "A4928",
      "name": "Medford Jackson Park",
      "lat": 42.33203,
      "lon": -122.89067,
      "elevation_m": 417.8808,
      "state": null,
      "abbr": "A492",
      "station_type": "nws",
      "display_weight": 1.0
    },
    {
      "id": "A4933",
      "name": "Choteau",
      "lat": 47.82031,
      "lon": -112.19363,
      "elevation_m": 1168.908,
      "state": null,
      "abbr": "A493",
      "station_type": "nws",
      "display_weight": 1.0
    },
    {
      "id": "A4978",
      "name": "Worland SLAMS",
      "lat": 44.00492,
      "lon": -107.95696,
      "elevation_m": 1241.1456,
      "state": null,
      "abbr": "A497",
      "station_type": "nws",
      "display_weight": 1.0
    },
    {
      "id": "A5008",
      "name": "Everett-Beverly Park Rd",
      "lat": 47.89371,
      "lon": -122.26982,
      "elevation_m": 175.26,
      "state": null,
      "abbr": "A500",
      "station_type": "nws",
      "display_weight": 1.0
    },
    {
      "id": "A5010",
      "name": "Springfield Youth Farm",
      "lat": 44.07636,
      "lon": -123.0369,
      "elevation_m": 134.112,
      "state": null,
      "abbr": "A501",
      "station_type": "nws",
      "display_weight": 1.0
    },
    {
      "id": "ABEI",
      "name": "Aberdeen",
      "lat": 42.95333,
      "lon": -112.82667,
      "elevation_m": 1341.12,
      "state": null,
      "abbr": "ABEI",
      "station_type": "nws",
      "display_weight": 1.0
    },
    {
      "id": "ABNW1",
      "name": "ABERNATHY MTN.",
      "lat": 46.34278,
      "lon": -123.08306,
      "elevation_m": 609.6,
      "state": null,
      "abbr": "ABNW",
      "station_type": "nws",
      "display_weight": 1.0
    },
    {
      "id": "ABOM8",
      "name": "CLARK FORK RIVER ABOVE MISSOULA 3E",
      "lat": 46.87722,
      "lon": -113.93139,
      "elevation_m": 974.7504,
      "state": null,
      "abbr": "ABOM",
      "station_type": "nws",
      "display_weight": 1.0
    },
    {
      "id": "ABRM8",
      "name": "ALBRO LAKE",
      "lat": 45.59723,
      "lon": -111.95902,
      "elevation_m": 2529.84,
      "state": null,
      "abbr": "ABRM",
      "station_type": "nws",
      "display_weight": 1.0
    },
    {
      "id": "ACRI1",
      "name": "ARCO",
      "lat": 43.62175,
      "lon": -113.38892,
      "elevation_m": 1651.4064,
      "state": null,
      "abbr": "ACRI",
      "station_type": "nws",
      "display_weight": 1.0
    },
    {
      "id": "ACRW1",
      "name": "ALPOWA CREEK AT MOUTH NEAR CLARKSTON 8W",
      "lat": 46.41222,
      "lon": -117.21333,
      "elevation_m": 237.744,
      "state": null,
      "abbr": "ACRW",
      "station_type": "nws",
      "display_weight": 1.0
    },
    {
      "id": "ADFW1",
      "name": "ALDER RIDGE",
      "lat": 46.26833,
      "lon": -117.49833,
      "elevation_m": 1371.6,
      "state": null,
      "abbr": "ADFW",
      "station_type": "nws",
      "display_weight": 1.0
    },
    {
      "id": "AFRI1",
      "name": "AMERICAN FALLS RESERVOIR NEAR AMERICAN FALLS 1SW",
      "lat": 42.77917,
      "lon": -112.87917,
      "elevation_m": 1310.0304,
      "state": null,
      "abbr": "AFRI",
      "station_type": "nws",
      "display_weight": 1.0
    },
    {
      "id": "AFSW1",
      "name": "PARADISE",
      "lat": 46.78265,
      "lon": -121.74765,
      "elevation_m": 1563.624,
      "state": null,
      "abbr": "AFSW",
      "station_type": "nws",
      "display_weight": 1.0
    },
    {
      "id": "AFTY",
      "name": "AFTON",
      "lat": 42.73333,
      "lon": -110.93583,
      "elevation_m": 1893.1128,
      "state": null,
      "abbr": "AFTY",
      "station_type": "nws",
      "display_weight": 1.0
    },
    {
      "id": "AGDO3",
      "name": "AGATE DAM AND RESERVOIR NEAR WHITE CITY 4ESE",
      "lat": 42.415,
      "lon": -122.77222,
      "elevation_m": 464.82,
      "state": null,
      "abbr": "AGDO",
      "station_type": "nws",
      "display_weight": 1.0
    },
    {
      "id": "AGFO3",
      "name": "AGNESS2",
      "lat": 42.55222,
      "lon": -124.05778,
      "elevation_m": 75.2856,
      "state": null,
      "abbr": "AGFO",
      "station_type": "nws",
      "display_weight": 1.0
    },
    {
      "id": "AGKO",
      "name": "Agency Lake",
      "lat": 42.56528,
      "lon": -121.9825,
      "elevation_m": 1231.6968,
      "state": null,
      "abbr": "AGKO",
      "station_type": "nws",
      "display_weight": 1.0
    },
    {
      "id": "AGNM8",
      "name": "Augusta N",
      "lat": 47.5853,
      "lon": -112.36,
      "elevation_m": 1313.0784,
      "state": null,
      "abbr": "AGNM",
      "station_type": "nws",
      "display_weight": 1.0
    },
    {
      "id": "AHTI",
      "name": "ASHTON",
      "lat": 44.025,
      "lon": -111.46667,
      "elevation_m": 1615.1352,
      "state": null,
      "abbr": "AHTI",
      "station_type": "nws",
      "display_weight": 1.0
    },
    {
      "id": "AKFLO",
      "name": "KLAMATH FALLS",
      "lat": 42.16472,
      "lon": -121.755,
      "elevation_m": 1249.9848,
      "state": null,
      "abbr": "AKFL",
      "station_type": "nws",
      "display_weight": 1.0
    },
    {
      "id": "ALDM8",
      "name": "ZORTMAN BLM",
      "lat": 47.91189,
      "lon": -108.50389,
      "elevation_m": 1213.104,
      "state": null,
      "abbr": "ALDM",
      "station_type": "nws",
      "display_weight": 1.0
    },
    {
      "id": "ALFO3",
      "name": "ALLISON",
      "lat": 43.92139,
      "lon": -119.59639,
      "elevation_m": 1621.536,
      "state": null,
      "abbr": "ALFO",
      "station_type": "nws",
      "display_weight": 1.0
    },
    {
      "id": "ALNO",
      "name": "Allen Canal at Echo, OR",
      "lat": 45.7336111,
      "lon": -119.2041667,
      "elevation_m": 192.024,
      "state": null,
      "abbr": "ALNO",
      "station_type": "nws",
      "display_weight": 1.0
    },
    {
      "id": "ALP31",
      "name": "Alpental Base",
      "lat": 47.44407,
      "lon": -121.42485,
      "elevation_m": 944.88,
      "state": null,
      "abbr": "ALP3",
      "station_type": "nws",
      "display_weight": 1.0
    },
    {
      "id": "ALP44",
      "name": "Alpental Mid-Mountain",
      "lat": 47.43474,
      "lon": -121.43357,
      "elevation_m": 1325.88,
      "state": null,
      "abbr": "ALP4",
      "station_type": "nws",
      "display_weight": 1.0
    },
    {
      "id": "ALP55",
      "name": "Alpental Summit",
      "lat": 47.43882,
      "lon": -121.44262,
      "elevation_m": 1667.256,
      "state": null,
      "abbr": "ALP5",
      "station_type": "nws",
      "display_weight": 1.0
    },
    {
      "id": "ALPY",
      "name": "Snake River above Reservoir near Alpine, WY",
      "lat": 43.1961111,
      "lon": -110.8894444,
      "elevation_m": 1732.4832,
      "state": null,
      "abbr": "ALPY",
      "station_type": "nws",
      "display_weight": 1.0
    },
    {
      "id": "ALTO",
      "name": "A-Line Canal (Terminus) nr Hermiston, OR",
      "lat": 45.8136111,
      "lon": -119.3577778,
      "elevation_m": 167.64,
      "state": null,
      "abbr": "ALTO",
      "station_type": "nws",
      "display_weight": 1.0
    },
    {
      "id": "ALTY",
      "name": "Alta Wyoming Weather Station",
      "lat": 43.7725,
      "lon": -111.0330556,
      "elevation_m": 1959.864,
      "state": null,
      "abbr": "ALTY",
      "station_type": "nws",
      "display_weight": 1.0
    },
    {
      "id": "AMF",
      "name": "American Falls Reservoir at American Falls, ID",
      "lat": 42.7791667,
      "lon": -112.8791667,
      "elevation_m": 1331.976,
      "state": null,
      "abbr": "AMF",
      "station_type": "nws",
      "display_weight": 1.0
    },
    {
      "id": "AMFI",
      "name": "Snake River at Neeley, ID",
      "lat": 42.7683333,
      "lon": -112.8783333,
      "elevation_m": 1292.9616,
      "state": null,
      "abbr": "AMFI",
      "station_type": "nws",
      "display_weight": 1.0
    },
    {
      "id": "AN625",
      "name": "North Bend-North Bend Way (SO)",
      "lat": 47.4902,
      "lon": -121.7727,
      "elevation_m": 138.9888,
      "state": null,
      "abbr": "AN62",
      "station_type": "nws",
      "display_weight": 1.0
    },
    {
      "id": "AN631",
      "name": "Seattle-Beacon Hill",
      "lat": 47.56824,
      "lon": -122.30863,
      "elevation_m": 102.108,
      "state": null,
      "abbr": "AN63",
      "station_type": "nws",
      "display_weight": 1.0
    },
    {
      "id": "AN634",
      "name": "Tacoma-L St",
      "lat": 47.1864,
      "lon": -122.4517,
      "elevation_m": 103.0224,
      "state": null,
      "abbr": "AN63",
      "station_type": "nws",
      "display_weight": 1.0
    },
    {
      "id": "AN639",
      "name": "Darrington-Fir St",
      "lat": 48.2468,
      "lon": -121.6031,
      "elevation_m": 171.9072,
      "state": null,
      "abbr": "AN63",
      "station_type": "nws",
      "display_weight": 1.0
    },
    {
      "id": "AN640",
      "name": "Marysville-7th Ave",
      "lat": 48.055,
      "lon": -122.1758,
      "elevation_m": 7.0104,
      "state": null,
      "abbr": "AN64",
      "station_type": "nws",
      "display_weight": 1.0
    },
    {
      "id": "AN641",
      "name": "Spokane-Augusta Ave",
      "lat": 47.6725,
      "lon": -117.3649,
      "elevation_m": 583.9968,
      "state": null,
      "abbr": "AN64",
      "station_type": "nws",
      "display_weight": 1.0
    },
    {
      "id": "AN644",
      "name": "Toppenish-Yakama Tribe",
      "lat": 46.3802,
      "lon": -120.3326,
      "elevation_m": 231.0384,
      "state": null,
      "abbr": "AN64",
      "station_type": "nws",
      "display_weight": 1.0
    },
    {
      "id": "AN677",
      "name": "Centennial",
      "lat": 41.3642,
      "lon": -106.2399,
      "elevation_m": 3176.9304,
      "state": null,
      "abbr": "AN67",
      "station_type": "nws",
      "display_weight": 1.0
    },
    {
      "id": "AN678",
      "name": "Thunder Basin",
      "lat": 44.6633,
      "lon": -105.2875,
      "elevation_m": 1182.0144,
      "state": null,
      "abbr": "AN67",
      "station_type": "nws",
      "display_weight": 1.0
    },
    {
      "id": "AN682",
      "name": "Boulder",
      "lat": 42.7186,
      "lon": -109.7531,
      "elevation_m": 2155.8504,
      "state": null,
      "abbr": "AN68",
      "station_type": "nws",
      "display_weight": 1.0
    },
    {
      "id": "AN684",
      "name": "Pinedale Gaseous",
      "lat": 42.8698,
      "lon": -109.8708,
      "elevation_m": 2189.988,
      "state": null,
      "abbr": "AN68",
      "station_type": "nws",
      "display_weight": 1.0
    },
    {
      "id": "AN685",
      "name": "Pinedale",
      "lat": 42.9288,
      "lon": -109.788,
      "elevation_m": 2389.0224,
      "state": null,
      "abbr": "AN68",
      "station_type": "nws",
      "display_weight": 1.0
    },
    {
      "id": "AN686",
      "name": "Wamsutter",
      "lat": 41.6778,
      "lon": -108.0242,
      "elevation_m": 2048.8656,
      "state": null,
      "abbr": "AN68",
      "station_type": "nws",
      "display_weight": 1.0
    },
    {
      "id": "AN714",
      "name": "Custer-Loomis (SO-AQS)",
      "lat": 48.9507,
      "lon": -122.5544,
      "elevation_m": 28.0416,
      "state": null,
      "abbr": "AN71",
      "station_type": "nws",
      "display_weight": 1.0
    },
    {
      "id": "AN775",
      "name": "Moxa Arch",
      "lat": 41.7506,
      "lon": -109.7897,
      "elevation_m": 1971.1416,
      "state": null,
      "abbr": "AN77",
      "station_type": "nws",
      "display_weight": 1.0
    },
    {
      "id": "AN776",
      "name": "Lacey-College St",
      "lat": 47.0293,
      "lon": -122.8215,
      "elevation_m": 63.0936,
      "state": null,
      "abbr": "AN77",
      "station_type": "nws",
      "display_weight": 1.0
    },
    {
      "id": "AN792",
      "name": "Cheyenne NCore",
      "lat": 41.18222,
      "lon": -104.77834,
      "elevation_m": 1859.8896,
      "state": null,
      "abbr": "AN79",
      "station_type": "nws",
      "display_weight": 1.0
    },
    {
      "id": "AN813",
      "name": "Daniel South",
      "lat": 42.7914,
      "lon": -110.0547,
      "elevation_m": 2168.0424,
      "state": null,
      "abbr": "AN81",
      "station_type": "nws",
      "display_weight": 1.0
    },
    {
      "id": "AN839",
      "name": "Big Piney",
      "lat": 42.48667,
      "lon": -110.09917,
      "elevation_m": 2080.8696,
      "state": null,
      "abbr": "AN83",
      "station_type": "nws",
      "display_weight": 1.0
    },
    {
      "id": "AN857",
      "name": "Lapwai",
      "lat": 46.3972,
      "lon": -116.8062,
      "elevation_m": 319.1256,
      "state": null,
      "abbr": "AN85",
      "station_type": "nws",
      "display_weight": 1.0
    },
    {
      "id": "AN859",
      "name": "Kamiah",
      "lat": 46.2094,
      "lon": -116.0275,
      "elevation_m": 437.9976,
      "state": null,
      "abbr": "AN85",
      "station_type": "nws",
      "display_weight": 1.0
    },
    {
      "id": "ANCI",
      "name": "Anderson Canal near Ririe, ID",
      "lat": 43.6222222,
      "lon": -111.6694444,
      "elevation_m": 1533.144,
      "state": null,
      "abbr": "ANCI",
      "station_type": "nws",
      "display_weight": 1.0
    },
    {
      "id": "AND",
      "name": "Anderson Ranch Dam and Reservoir",
      "lat": 43.3583333,
      "lon": -115.4444444,
      "elevation_m": 1274.064,
      "state": null,
      "abbr": "AND",
      "station_type": "nws",
      "display_weight": 1.0
    },
    {
      "id": "ANDI",
      "name": "South Fork Boise River at Anderson Ranch Dam",
      "lat": 43.3416667,
      "lon": -115.4777778,
      "elevation_m": 1167.384,
      "state": null,
      "abbr": "ANDI",
      "station_type": "nws",
      "display_weight": 1.0
    },